{"type": "FeatureCollection", "features": [{"type": "Feature", "properties": {"id": "14TH-001", "name": "Rooster & Owl", "address": "2436 14th St NW, Washington, DC, DC, 20009", "category": "Restaurant", "neighborhood": "14th Street Corridor", "rating": 4.5, "reviews": 528, "price": "$$$$", "score": 95}, "geometry": {"type": "Point", "coordinates": [-77.0323891192675, 38.9215571973142]}}, {"type": "Feature", "properties": {"id": "14TH-002", "name": "Osteria Al  Volo", "address": "1790 Columbia Rd NW, Washington, DC, DC, 20009", "category": "Restaurant", "neighborhood": "14th Street Corridor", "rating": 4.5, "reviews": 594, "price": "$$", "score": 95}, "geometry": {"type": "Point", "coordinates": [-77.04217705493204, 38.92271878316674]}}, {"type": "Feature", "properties": {"id": "14TH-003", "name": "Izakaya Seki", "address": "1117 V St NW, Washington, DC, DC, 20009", "category": "Restaurant", "neighborhood": "14th Street Corridor", "rating": 4.0, "reviews": 517, "price": "$$$", "score": 93}, "geometry": {"type": "Point", "coordinates": [-77.02779, 38.91832]}}, {"type": "Feature", "properties": {"id": "14TH-004", "name": "Lapis", "address": "1847 Columbia Rd NW, Washington, DC, DC, 20009", "category": "Bar", "neighborhood": "14th Street Corridor", "rating": 4.3, "reviews": 1155, "price": "$$", "score": 90}, "geometry": {"type": "Point", "coordinates": [-77.04392, 38.9213]}}, {"type": "Feature", "properties": {"id": "14TH-005", "name": "CODE RED", "address": "2440 18th St NW, Washington, DC, DC, 20009", "category": "Bar", "neighborhood": "14th Street Corridor", "rating": 4.6, "reviews": 194, "price": "$$", "score": 90}, "geometry": {"type": "Point", "coordinates": [-77.0427, 38.92168]}}, {"type": "Feature", "properties": {"id": "14TH-006", "name": "Tryst", "address": "2459 18th St NW, Washington, DC, DC, 20009", "category": "Coffee", "neighborhood": "14th Street Corridor", "rating": 4.0, "reviews": 1867, "price": "$$", "score": 90}, "geometry": {"type": "Point", "coordinates": [-77.042121887207, 38.9219703674316]}}, {"type": "Feature", "properties": {"id": "14TH-007", "name": "Busboys and Poets", "address": "2021 14th St NW, Washington, DC, DC, 20009", "category": "Restaurant", "neighborhood": "14th Street Corridor", "rating": 4.0, "reviews": 2908, "price": "$$", "score": 90}, "geometry": {"type": "Point", "coordinates": [-77.03144, 38.917898]}}, {"type": "Feature", "properties": {"id": "14TH-008", "name": "Federalist Pig", "address": "1654 Columbia Rd NW, Washington, DC, DC, 20009", "category": "Restaurant", "neighborhood": "14th Street Corridor", "rating": 4.3, "reviews": 933, "price": "$$", "score": 90}, "geometry": {"type": "Point", "coordinates": [-77.038606, 38.925033]}}, {"type": "Feature", "properties": {"id": "14TH-009", "name": "Ball or Nothing", "address": "Washington, DC, DC, 20009", "category": "Restaurant", "neighborhood": "14th Street Corridor", "rating": 4.5, "reviews": 107, "price": "$", "score": 90}, "geometry": {"type": "Point", "coordinates": [-77.03709, 38.92041]}}, {"type": "Feature", "properties": {"id": "14TH-010", "name": "Tsehay Ethiopian Restaurant & Bar", "address": "2429 18th St, Washington, DC, DC, 20009", "category": "Restaurant", "neighborhood": "14th Street Corridor", "rating": 4.6, "reviews": 162, "price": "$$", "score": 90}, "geometry": {"type": "Point", "coordinates": [-77.04191657265395, 38.9212881219731]}}, {"type": "Feature", "properties": {"id": "14TH-011", "name": "Sakuramen", "address": "2441 18th St NW, Washington, DC, DC, 20009", "category": "Restaurant", "neighborhood": "14th Street Corridor", "rating": 4.1, "reviews": 1756, "price": "$$", "score": 90}, "geometry": {"type": "Point", "coordinates": [-77.0420884061516, 38.9216012545356]}}, {"type": "Feature", "properties": {"id": "14TH-012", "name": "Reveler\u2019s Hour", "address": "1775 Columbia Rd NW, Washington, DC, DC, 20009", "category": "Restaurant", "neighborhood": "14th Street Corridor", "rating": 4.1, "reviews": 206, "price": "$$$", "score": 90}, "geometry": {"type": "Point", "coordinates": [-77.04207, 38.92349]}}, {"type": "Feature", "properties": {"id": "14TH-013", "name": "Soleluna", "address": "1789 Columbia Rd NW, Washington, DC, DC, 20009", "category": "Coffee", "neighborhood": "14th Street Corridor", "rating": 4.6, "reviews": 158, "price": "", "score": 90}, "geometry": {"type": "Point", "coordinates": [-77.0423368, 38.923114551740255]}}, {"type": "Feature", "properties": {"id": "14TH-014", "name": "Sharbat Bakery And Cafe", "address": "2473 18th St Nw, Washington, DC, DC, 20009", "category": "Bakery", "neighborhood": "14th Street Corridor", "rating": 4.6, "reviews": 130, "price": "", "score": 90}, "geometry": {"type": "Point", "coordinates": [-77.04227, 38.92233]}}, {"type": "Feature", "properties": {"id": "14TH-015", "name": "Sankofa Video Books & Cafe", "address": "2714 Georgia Ave NW, Washington, DC, DC, 20001", "category": "Cafe", "neighborhood": "14th Street Corridor", "rating": 4.6, "reviews": 179, "price": "$", "score": 90}, "geometry": {"type": "Point", "coordinates": [-77.02315, 38.925561]}}, {"type": "Feature", "properties": {"id": "14TH-016", "name": "Cana ", "address": "2412 18th St NW, Washington, DC, DC, 20009", "category": "Bar", "neighborhood": "14th Street Corridor", "rating": 4.5, "reviews": 78, "price": "", "score": 88}, "geometry": {"type": "Point", "coordinates": [-77.042414, 38.921096]}}, {"type": "Feature", "properties": {"id": "14TH-017", "name": "Mola", "address": "2438 18th St NW, Washington, DC, DC, 20009", "category": "Restaurant", "neighborhood": "14th Street Corridor", "rating": 4.7, "reviews": 74, "price": "", "score": 88}, "geometry": {"type": "Point", "coordinates": [-77.04266, 38.92165]}}, {"type": "Feature", "properties": {"id": "14TH-018", "name": "The Royal", "address": "501 Florida Ave NW, Washington, DC, DC, 20001", "category": "Bar", "neighborhood": "14th Street Corridor", "rating": 4.2, "reviews": 429, "price": "$$", "score": 87}, "geometry": {"type": "Point", "coordinates": [-77.0185775756836, 38.9150428771973]}}, {"type": "Feature", "properties": {"id": "14TH-019", "name": "Tiki On 18th", "address": "2411 18th St NW, Washington, DC, DC, 20009", "category": "Bar", "neighborhood": "14th Street Corridor", "rating": 4.1, "reviews": 248, "price": "$$", "score": 87}, "geometry": {"type": "Point", "coordinates": [-77.0417215, 38.9208884]}}, {"type": "Feature", "properties": {"id": "14TH-020", "name": "Restaurant Judy", "address": "2212 14th St NW, Washington, DC, DC, 20009", "category": "Restaurant", "neighborhood": "14th Street Corridor", "rating": 4.3, "reviews": 301, "price": "$$", "score": 87}, "geometry": {"type": "Point", "coordinates": [-77.03229, 38.91966]}}, {"type": "Feature", "properties": {"id": "14TH-021", "name": "PhoNatics Noodle Bar", "address": "2424 14th St NW, Washington, DC, DC, 20009", "category": "Restaurant", "neighborhood": "14th Street Corridor", "rating": 4.3, "reviews": 214, "price": "$$", "score": 87}, "geometry": {"type": "Point", "coordinates": [-77.032156, 38.92119]}}, {"type": "Feature", "properties": {"id": "14TH-022", "name": "Far East Taco Grille - Truck", "address": "Washington, DC, DC, 20009", "category": "Restaurant", "neighborhood": "14th Street Corridor", "rating": 4.1, "reviews": 235, "price": "$", "score": 87}, "geometry": {"type": "Point", "coordinates": [-77.0372161865234, 38.919849395752]}}, {"type": "Feature", "properties": {"id": "14TH-023", "name": "Retrobottega", "address": "2435 18th St NW, Washington, DC, DC, 20009", "category": "Restaurant", "neighborhood": "14th Street Corridor", "rating": 4.4, "reviews": 330, "price": "$$", "score": 87}, "geometry": {"type": "Point", "coordinates": [-77.04193, 38.92143]}}, {"type": "Feature", "properties": {"id": "14TH-024", "name": "Rise Bakery", "address": "2409 18th St NW, Washington, DC, DC, 20009", "category": "Bakery", "neighborhood": "14th Street Corridor", "rating": 4.2, "reviews": 393, "price": "$", "score": 87}, "geometry": {"type": "Point", "coordinates": [-77.04187161322285, 38.92081425118877]}}, {"type": "Feature", "properties": {"id": "14TH-025", "name": "Easy Tiger Tavern", "address": "1817 Columbia Rd NW, Washington, DC, DC, 20009", "category": "Bar", "neighborhood": "14th Street Corridor", "rating": 4.9, "reviews": 17, "price": "$$", "score": 85}, "geometry": {"type": "Point", "coordinates": [-77.043654, 38.921963]}}, {"type": "Feature", "properties": {"id": "14TH-026", "name": "The Diner", "address": "2453 18th St NW, Washington, DC, DC, 20009", "category": "Bar", "neighborhood": "14th Street Corridor", "rating": 3.6, "reviews": 1189, "price": "$$", "score": 85}, "geometry": {"type": "Point", "coordinates": [-77.0421914, 38.9218256]}}, {"type": "Feature", "properties": {"id": "14TH-027", "name": "Taqueria Al Lado", "address": "1792 Columbia Rd NW, Washington, DC, DC, 20009", "category": "Bar", "neighborhood": "14th Street Corridor", "rating": 4.0, "reviews": 189, "price": "$$", "score": 85}, "geometry": {"type": "Point", "coordinates": [-77.04226, 38.9227]}}, {"type": "Feature", "properties": {"id": "14TH-028", "name": "Landmark Theatres - Atlantic Plumbing Cinema", "address": "807 V St NW, Washington, DC, DC, 20001", "category": "Bar", "neighborhood": "14th Street Corridor", "rating": 4.0, "reviews": 166, "price": "$$", "score": 85}, "geometry": {"type": "Point", "coordinates": [-77.0232343669398, 38.9179353545148]}}, {"type": "Feature", "properties": {"id": "14TH-029", "name": "Andy's Pizza", "address": "2465 18th St NW, Washington, DC, DC, 20009", "category": "Bar", "neighborhood": "14th Street Corridor", "rating": 4.3, "reviews": 150, "price": "", "score": 85}, "geometry": {"type": "Point", "coordinates": [-77.0421906, 38.92214129886951]}}, {"type": "Feature", "properties": {"id": "14TH-030", "name": "9:30 Club", "address": "815 V St NW, Washington, DC, DC, 20001", "category": "Bar", "neighborhood": "14th Street Corridor", "rating": 3.9, "reviews": 787, "price": "$$", "score": 85}, "geometry": {"type": "Point", "coordinates": [-77.023665130059, 38.9178851722944]}}, {"type": "Feature", "properties": {"id": "14TH-031", "name": "Sinners and Saints", "address": "2309 18th St NW, Washington, DC, DC, 20009", "category": "Restaurant", "neighborhood": "14th Street Corridor", "rating": 5.0, "reviews": 2, "price": "", "score": 85}, "geometry": {"type": "Point", "coordinates": [-77.04146, 38.92]}}, {"type": "Feature", "properties": {"id": "14TH-032", "name": "Little Hat Coffee", "address": "2400 14th St NW, Washington, DC, DC, 20009", "category": "Coffee", "neighborhood": "14th Street Corridor", "rating": 4.8, "reviews": 45, "price": "", "score": 85}, "geometry": {"type": "Point", "coordinates": [-77.03209, 38.92076]}}, {"type": "Feature", "properties": {"id": "14TH-033", "name": "Busboys and Poets - Bookstore", "address": "2021 14th St NW, Washington, DC, DC, 20009", "category": "Restaurant", "neighborhood": "14th Street Corridor", "rating": 4.6, "reviews": 13, "price": "$$", "score": 85}, "geometry": {"type": "Point", "coordinates": [-77.03165526712016, 38.917947396353874]}}, {"type": "Feature", "properties": {"id": "14TH-034", "name": "Slice & Pie Pizza", "address": "2221 14th St NW, Washington, DC, DC, 20009", "category": "Restaurant", "neighborhood": "14th Street Corridor", "rating": 4.0, "reviews": 142, "price": "", "score": 85}, "geometry": {"type": "Point", "coordinates": [-77.0316, 38.91991]}}, {"type": "Feature", "properties": {"id": "14TH-035", "name": "Dukem Ethiopian Restaurant", "address": "1114-1118 U St NW, Washington, DC, DC, 20009", "category": "Restaurant", "neighborhood": "14th Street Corridor", "rating": 3.5, "reviews": 988, "price": "$$", "score": 85}, "geometry": {"type": "Point", "coordinates": [-77.0272867, 38.9168651]}}, {"type": "Feature", "properties": {"id": "14TH-036", "name": "Florida Avenue Grill", "address": "1100 Florida Ave NW, Washington, DC, DC, 20009", "category": "Restaurant", "neighborhood": "14th Street Corridor", "rating": 3.5, "reviews": 567, "price": "$$", "score": 85}, "geometry": {"type": "Point", "coordinates": [-77.0273799, 38.92061]}}, {"type": "Feature", "properties": {"id": "14TH-037", "name": "Akira Ramen & Izakaya", "address": "2479 18th St NW, Washington, DC, DC, 20009", "category": "Restaurant", "neighborhood": "14th Street Corridor", "rating": 4.3, "reviews": 179, "price": "$$", "score": 85}, "geometry": {"type": "Point", "coordinates": [-77.04231139448473, 38.92249411161132]}}, {"type": "Feature", "properties": {"id": "14TH-038", "name": "Soul Wingz Authentic Soul Food", "address": "1905 9th St NE, Washington, DC, DC, 20018", "category": "Restaurant", "neighborhood": "14th Street Corridor", "rating": 5.0, "reviews": 2, "price": "", "score": 85}, "geometry": {"type": "Point", "coordinates": [-77.024225, 38.916291]}}, {"type": "Feature", "properties": {"id": "14TH-039", "name": "Perry's Restaurant", "address": "1811 Columbia Rd NW, Washington, DC, DC, 20009", "category": "Restaurant", "neighborhood": "14th Street Corridor", "rating": 3.9, "reviews": 954, "price": "$$", "score": 85}, "geometry": {"type": "Point", "coordinates": [-77.04356, 38.92212]}}, {"type": "Feature", "properties": {"id": "14TH-040", "name": "Dawa", "address": "2208 14th St NW, Washington, DC, DC, 20009", "category": "Restaurant", "neighborhood": "14th Street Corridor", "rating": 4.5, "reviews": 2, "price": "", "score": 85}, "geometry": {"type": "Point", "coordinates": [-77.03217349490093, 38.9195509]}}, {"type": "Feature", "properties": {"id": "14TH-041", "name": "Doro Soul Food", "address": "2108 8th St NW, Washington, DC, DC, 20001", "category": "Restaurant", "neighborhood": "14th Street Corridor", "rating": 4.0, "reviews": 102, "price": "", "score": 85}, "geometry": {"type": "Point", "coordinates": [-77.02307947949001, 38.918159254331194]}}, {"type": "Feature", "properties": {"id": "14TH-042", "name": "Reed Cooke Cafe", "address": "1630 Columbia Rd NW, Washington, DC, DC, 20009", "category": "Coffee", "neighborhood": "14th Street Corridor", "rating": 5.0, "reviews": 1, "price": "", "score": 85}, "geometry": {"type": "Point", "coordinates": [-77.03749838988715, 38.92565431768865]}}, {"type": "Feature", "properties": {"id": "14TH-043", "name": "Broken Rice Food Truck", "address": "Washington, DC, DC, 20001", "category": "Coffee", "neighborhood": "14th Street Corridor", "rating": 5.0, "reviews": 1, "price": "", "score": 85}, "geometry": {"type": "Point", "coordinates": [-77.0199, 38.91281]}}, {"type": "Feature", "properties": {"id": "14TH-044", "name": "Blue Moon Estate Sales Potomac", "address": "1458 Columbia Rd NW, Washington, DC, DC, 20009", "category": "Bakery", "neighborhood": "14th Street Corridor", "rating": 5.0, "reviews": 6, "price": "", "score": 85}, "geometry": {"type": "Point", "coordinates": [-77.034306, 38.927332]}}, {"type": "Feature", "properties": {"id": "14TH-045", "name": "Madam's Organ", "address": "2461 18th St NW, Washington, DC, DC, 20009", "category": "Nightclub", "neighborhood": "14th Street Corridor", "rating": 3.8, "reviews": 524, "price": "$$", "score": 85}, "geometry": {"type": "Point", "coordinates": [-77.04214, 38.92204]}}, {"type": "Feature", "properties": {"id": "14TH-046", "name": "Hotbed", "address": "2477 18th St NW, Washington, DC, DC, 20009-2003", "category": "Restaurant", "neighborhood": "14th Street Corridor", "rating": 4.5, "reviews": 23, "price": "", "score": 85}, "geometry": {"type": "Point", "coordinates": [-77.0422586, 38.922436]}}, {"type": "Feature", "properties": {"id": "14TH-047", "name": "Club Timehri", "address": "2439 18th St NW, Washington, DC, DC, 20009", "category": "Nightclub", "neighborhood": "14th Street Corridor", "rating": 4.0, "reviews": 67, "price": "$$", "score": 83}, "geometry": {"type": "Point", "coordinates": [-77.0421173, 38.921501]}}, {"type": "Feature", "properties": {"id": "14TH-048", "name": "Bul", "address": "2431 18th St NW, Washington, DC, DC, 20009", "category": "Bar", "neighborhood": "14th Street Corridor", "rating": 3.8, "reviews": 461, "price": "$$", "score": 82}, "geometry": {"type": "Point", "coordinates": [-77.041935, 38.921332]}}, {"type": "Feature", "properties": {"id": "14TH-049", "name": "Bukom Cafe", "address": "2442 18th St NW, Washington, DC, DC, 20009", "category": "Bar", "neighborhood": "14th Street Corridor", "rating": 3.8, "reviews": 386, "price": "$$", "score": 82}, "geometry": {"type": "Point", "coordinates": [-77.04256407116394, 38.9218043]}}, {"type": "Feature", "properties": {"id": "14TH-050", "name": "Super Tacos & Bakery", "address": "1762 Columbia Rd NW, Washington, DC, DC, 20009", "category": "Bakery", "neighborhood": "14th Street Corridor", "rating": 3.8, "reviews": 400, "price": "$", "score": 82}, "geometry": {"type": "Point", "coordinates": [-77.04087, 38.92353]}}, {"type": "Feature", "properties": {"id": "14TH-051", "name": "Johnny Pistolas", "address": "2333 18th St NW, Washington, DC, DC, 20009", "category": "Bar", "neighborhood": "14th Street Corridor", "rating": 3.6, "reviews": 493, "price": "$$", "score": 82}, "geometry": {"type": "Point", "coordinates": [-77.0416259765625, 38.9204902648926]}}, {"type": "Feature", "properties": {"id": "14TH-052", "name": "Merry Christmas Bar", "address": "1359 U St NW, Washington, DC, DC, 20009", "category": "Bar", "neighborhood": "14th Street Corridor", "rating": 4.0, "reviews": 1, "price": "", "score": 80}, "geometry": {"type": "Point", "coordinates": [-77.031501, 38.917151]}}, {"type": "Feature", "properties": {"id": "14TH-053", "name": "Maison Bar A Vins", "address": "1834 Columbia Rd NW, Washington, DC, DC, 20009", "category": "Wine Bar", "neighborhood": "14th Street Corridor", "rating": 4.4, "reviews": 13, "price": "", "score": 80}, "geometry": {"type": "Point", "coordinates": [-77.0431199669838, 38.92171996572749]}}, {"type": "Feature", "properties": {"id": "14TH-054", "name": "Pop Fizz Bar", "address": "2108 Vermont Ave NW, Washington, DC, DC, 20001", "category": "Restaurant", "neighborhood": "14th Street Corridor", "rating": 4.1, "reviews": 39, "price": "", "score": 80}, "geometry": {"type": "Point", "coordinates": [-77.02479542549062, 38.91844450000001]}}, {"type": "Feature", "properties": {"id": "14TH-055", "name": "Lapop", "address": "1847 Columbia Rd NW, Washington, DC, DC, 20000", "category": "Bar", "neighborhood": "14th Street Corridor", "rating": 4.1, "reviews": 43, "price": "$$", "score": 80}, "geometry": {"type": "Point", "coordinates": [-77.0438345815766, 38.9213293230941]}}, {"type": "Feature", "properties": {"id": "14TH-056", "name": "Prima DC", "address": "900 Florida Ave NW, Washington, DC, DC, 20001", "category": "Restaurant", "neighborhood": "14th Street Corridor", "rating": 4.1, "reviews": 16, "price": "", "score": 80}, "geometry": {"type": "Point", "coordinates": [-77.02425, 38.917727]}}, {"type": "Feature", "properties": {"id": "14TH-057", "name": "Grand Duchess", "address": "2337 18th St NW, Washington, DC, DC, 20009", "category": "Bar", "neighborhood": "14th Street Corridor", "rating": 4.4, "reviews": 43, "price": "", "score": 80}, "geometry": {"type": "Point", "coordinates": [-77.04166, 38.9206]}}, {"type": "Feature", "properties": {"id": "14TH-058", "name": "Mixxed Food And Drinks", "address": "2427 18th St NW, Washington, DC, DC, 20009", "category": "Bar", "neighborhood": "14th Street Corridor", "rating": 4.3, "reviews": 32, "price": "$$", "score": 80}, "geometry": {"type": "Point", "coordinates": [-77.0418854, 38.92124503582982]}}, {"type": "Feature", "properties": {"id": "14TH-059", "name": "Roofers Union", "address": "2446 18th St NW, Washington, DC, DC, 20009", "category": "Bar", "neighborhood": "14th Street Corridor", "rating": 3.4, "reviews": 505, "price": "$$", "score": 80}, "geometry": {"type": "Point", "coordinates": [-77.0427, 38.92184]}}, {"type": "Feature", "properties": {"id": "14TH-060", "name": "Bossa", "address": "2463 18th St NW, Washington, DC, DC, 20009", "category": "Restaurant", "neighborhood": "14th Street Corridor", "rating": 3.6, "reviews": 141, "price": "$$", "score": 80}, "geometry": {"type": "Point", "coordinates": [-77.04225252972181, 38.9220876263576]}}, {"type": "Feature", "properties": {"id": "14TH-061", "name": "Cafe Saint-Ex", "address": "1847 14th St NW, Washington, DC, DC, 20009", "category": "Restaurant", "neighborhood": "14th Street Corridor", "rating": 3.3, "reviews": 662, "price": "$$", "score": 80}, "geometry": {"type": "Point", "coordinates": [-77.031673, 38.915423]}}, {"type": "Feature", "properties": {"id": "14TH-062", "name": "Pizza Corner - Halal", "address": "1501 U St Nw, Washington, DC, DC, 20009", "category": "Restaurant", "neighborhood": "14th Street Corridor", "rating": 4.1, "reviews": 10, "price": "", "score": 80}, "geometry": {"type": "Point", "coordinates": [-77.03483, 38.91714]}}, {"type": "Feature", "properties": {"id": "14TH-063", "name": "District Falafel", "address": "Washington, DC, DC, 20009", "category": "Restaurant", "neighborhood": "14th Street Corridor", "rating": 4.2, "reviews": 34, "price": "", "score": 80}, "geometry": {"type": "Point", "coordinates": [-77.0392227172852, 38.9189414978027]}}, {"type": "Feature", "properties": {"id": "14TH-064", "name": "That Cheesecake Truck", "address": "Washington, DC, DC, 20009", "category": "Restaurant", "neighborhood": "14th Street Corridor", "rating": 4.0, "reviews": 27, "price": "$", "score": 80}, "geometry": {"type": "Point", "coordinates": [-77.0392227172852, 38.9189414978027]}}, {"type": "Feature", "properties": {"id": "14TH-065", "name": "Italian Kitchen", "address": "1110 U St NW, Washington, DC, DC, 20009", "category": "Restaurant", "neighborhood": "14th Street Corridor", "rating": 3.5, "reviews": 102, "price": "$", "score": 80}, "geometry": {"type": "Point", "coordinates": [-77.02714, 38.91686]}}, {"type": "Feature", "properties": {"id": "14TH-066", "name": "El Tamarindo", "address": "1785 Florida Ave NW, Washington, DC, DC, 20009", "category": "Restaurant", "neighborhood": "14th Street Corridor", "rating": 3.4, "reviews": 626, "price": "$$", "score": 80}, "geometry": {"type": "Point", "coordinates": [-77.04126, 38.91717]}}, {"type": "Feature", "properties": {"id": "14TH-067", "name": "Cuban Espresso", "address": "2750 14th St NW, Washington, DC, DC, 20009", "category": "Coffee", "neighborhood": "14th Street Corridor", "rating": 4.4, "reviews": 20, "price": "", "score": 80}, "geometry": {"type": "Point", "coordinates": [-77.032657, 38.925263]}}, {"type": "Feature", "properties": {"id": "14TH-068", "name": "Unido", "address": "908 W St NW, Washington, DC, DC, 20001", "category": "Coffee", "neighborhood": "14th Street Corridor", "rating": 4.2, "reviews": 49, "price": "", "score": 80}, "geometry": {"type": "Point", "coordinates": [-77.024541, 38.91909706881854]}}, {"type": "Feature", "properties": {"id": "14TH-069", "name": "Land of a Thousand Hills Coffee", "address": "2601 14th St NW, Washington, DC, DC, 20009", "category": "Coffee", "neighborhood": "14th Street Corridor", "rating": 4.0, "reviews": 11, "price": "", "score": 80}, "geometry": {"type": "Point", "coordinates": [-77.03195496503962, 38.923931317548025]}}, {"type": "Feature", "properties": {"id": "14TH-070", "name": "Dolci Gelati Truck", "address": "Washington, DC, DC, 20001", "category": "Coffee", "neighborhood": "14th Street Corridor", "rating": 4.1, "reviews": 14, "price": "$", "score": 80}, "geometry": {"type": "Point", "coordinates": [-77.0177383422852, 38.9104423522949]}}, {"type": "Feature", "properties": {"id": "14TH-071", "name": "Compass Coffee", "address": "1827 Adams Mill Rd NW, Washington, DC, DC, 20009", "category": "Coffee", "neighborhood": "14th Street Corridor", "rating": 4.3, "reviews": 8, "price": "", "score": 80}, "geometry": {"type": "Point", "coordinates": [-77.04314, 38.923492]}}, {"type": "Feature", "properties": {"id": "14TH-072", "name": "The Atlantis", "address": "2047 9th St NW, Washington, DC, DC, 20001", "category": "Nightclub", "neighborhood": "14th Street Corridor", "rating": 4.2, "reviews": 23, "price": "", "score": 80}, "geometry": {"type": "Point", "coordinates": [-77.023643, 38.918152]}}, {"type": "Feature", "properties": {"id": "14TH-073", "name": "Underground Comedy", "address": "2477 18th St NW, Washington, DC, DC, 20009", "category": "Restaurant", "neighborhood": "14th Street Corridor", "rating": 4.2, "reviews": 45, "price": "$", "score": 80}, "geometry": {"type": "Point", "coordinates": [-77.0422586, 38.922448022354395]}}, {"type": "Feature", "properties": {"id": "14TH-074", "name": "sweetgreen - Healthy Salads, Bowls and Plates", "address": "1325 W St NW, Washington, DC, DC, 20009", "category": "Restaurant", "neighborhood": "14th Street Corridor", "rating": 3.5, "reviews": 98, "price": "$$", "score": 78}, "geometry": {"type": "Point", "coordinates": [-77.0312563982043, 38.9193651637291]}}, {"type": "Feature", "properties": {"id": "14TH-075", "name": "Rush Bowls", "address": "1209 U St NW, Washington, DC, DC, 20009", "category": "Restaurant", "neighborhood": "14th Street Corridor", "rating": 3.9, "reviews": 58, "price": "", "score": 78}, "geometry": {"type": "Point", "coordinates": [-77.02859, 38.91719]}}, {"type": "Feature", "properties": {"id": "14TH-076", "name": "KoGiBow Bakery", "address": "1817 Adams Mill Rd NW, Washington, DC, DC, 20009", "category": "Bakery", "neighborhood": "14th Street Corridor", "rating": 3.9, "reviews": 69, "price": "$", "score": 78}, "geometry": {"type": "Point", "coordinates": [-77.04264, 38.92329]}}, {"type": "Feature", "properties": {"id": "14TH-077", "name": "American Ice Company", "address": "917 V St NW, Washington, DC, DC, 20001", "category": "Bar", "neighborhood": "14th Street Corridor", "rating": 3.4, "reviews": 387, "price": "$$", "score": 77}, "geometry": {"type": "Point", "coordinates": [-77.02528, 38.91835]}}, {"type": "Feature", "properties": {"id": "14TH-078", "name": "Manny & Olga's Pizza", "address": "1841 14th St NW, Washington, DC, DC, 20009", "category": "Restaurant", "neighborhood": "14th Street Corridor", "rating": 2.3, "reviews": 317, "price": "$", "score": 77}, "geometry": {"type": "Point", "coordinates": [-77.0317258, 38.9152796]}}, {"type": "Feature", "properties": {"id": "14TH-079", "name": "V14 Street Lounge", "address": "2100 14th St NW, Washington, DC, DC, 20009", "category": "Restaurant", "neighborhood": "14th Street Corridor", "rating": 3.6, "reviews": 26, "price": "", "score": 75}, "geometry": {"type": "Point", "coordinates": [-77.032257, 38.918282]}}, {"type": "Feature", "properties": {"id": "14TH-080", "name": "The Town Tavern", "address": "2323 18th St NW, Washington, DC, DC, 20009", "category": "Bar", "neighborhood": "14th Street Corridor", "rating": 3.2, "reviews": 176, "price": "$", "score": 75}, "geometry": {"type": "Point", "coordinates": [-77.0415725708008, 38.9203262329102]}}, {"type": "Feature", "properties": {"id": "14TH-081", "name": "Pitchers DC", "address": "2317 18th St NW, Washington, DC, DC, 20009", "category": "Bar", "neighborhood": "14th Street Corridor", "rating": 3.3, "reviews": 130, "price": "$$", "score": 75}, "geometry": {"type": "Point", "coordinates": [-77.04176443092022, 38.92045499940667]}}, {"type": "Feature", "properties": {"id": "14TH-082", "name": "90 Second Pizza", "address": "1408 U St NW, Washington, DC, DC, 20009", "category": "Restaurant", "neighborhood": "14th Street Corridor", "rating": 3.8, "reviews": 9, "price": "", "score": 75}, "geometry": {"type": "Point", "coordinates": [-77.0323789, 38.9168799]}}, {"type": "Feature", "properties": {"id": "14TH-083", "name": "Lucky Pollo", "address": "1357B U St NW, Washington, DC, DC, 20009", "category": "Restaurant", "neighborhood": "14th Street Corridor", "rating": 3.8, "reviews": 4, "price": "", "score": 75}, "geometry": {"type": "Point", "coordinates": [-77.0313031, 38.91723082796732]}}, {"type": "Feature", "properties": {"id": "14TH-084", "name": "Jumbo Pizza", "address": "1344 U St NW, Washington, DC, DC, 20009", "category": "Restaurant", "neighborhood": "14th Street Corridor", "rating": 2.1, "reviews": 132, "price": "$", "score": 75}, "geometry": {"type": "Point", "coordinates": [-77.0313, 38.91673]}}, {"type": "Feature", "properties": {"id": "14TH-085", "name": "Glory Lounge", "address": "2406 18th St NW, Washington, DC, DC, 20009", "category": "Bar", "neighborhood": "14th Street Corridor", "rating": 3.7, "reviews": 6, "price": "", "score": 75}, "geometry": {"type": "Point", "coordinates": [-77.0423464, 38.92088]}}, {"type": "Feature", "properties": {"id": "14TH-086", "name": "Wet Dog Tavern", "address": "2100 Vermont Ave NW, Washington, DC, DC, 20001", "category": "Bar", "neighborhood": "14th Street Corridor", "rating": 3.2, "reviews": 93, "price": "$$", "score": 73}, "geometry": {"type": "Point", "coordinates": [-77.02488, 38.9183]}}, {"type": "Feature", "properties": {"id": "14TH-087", "name": "McDonald's", "address": "2328 Georgia Ave NW, Washington, DC, DC, 20001", "category": "Coffee", "neighborhood": "14th Street Corridor", "rating": 1.4, "reviews": 65, "price": "$", "score": 73}, "geometry": {"type": "Point", "coordinates": [-77.022315, 38.920597]}}, {"type": "Feature", "properties": {"id": "14TH-088", "name": "McDonald's", "address": "2481-83 18th St NW, Washington, DC, DC, 20009", "category": "Coffee", "neighborhood": "14th Street Corridor", "rating": 2.1, "reviews": 67, "price": "$", "score": 73}, "geometry": {"type": "Point", "coordinates": [-77.042391, 38.922595]}}, {"type": "Feature", "properties": {"id": "14TH-089", "name": "Crab Plug", "address": "2917 Georgia Ave NW, Washington, DC, DC, 20001", "category": "Bar", "neighborhood": "14th Street Corridor", "rating": 2.6, "reviews": 66, "price": "", "score": 73}, "geometry": {"type": "Point", "coordinates": [-77.0227778806261, 38.92780494649332]}}, {"type": "Feature", "properties": {"id": "14TH-090", "name": "Yolo Restaurants & Lounge", "address": "2005 14th St Nw, Washington, DC, DC, 20009", "category": "Nightclub", "neighborhood": "14th Street Corridor", "rating": 3.0, "reviews": 7, "price": "", "score": 70}, "geometry": {"type": "Point", "coordinates": [-77.03162979999999, 38.91726054968863]}}, {"type": "Feature", "properties": {"id": "14TH-091", "name": "DC Comedy Clubhouse", "address": "2013 14th St NW, Washington, DC, DC, 20009", "category": "Bar", "neighborhood": "14th Street Corridor", "rating": 2.0, "reviews": 5, "price": "", "score": 70}, "geometry": {"type": "Point", "coordinates": [-77.03158, 38.91747]}}, {"type": "Feature", "properties": {"id": "14TH-092", "name": "We The Pizza", "address": "1301 U St NW, Washington, DC, DC, 20009", "category": "Restaurant", "neighborhood": "14th Street Corridor", "rating": 3.4, "reviews": 34, "price": "", "score": 70}, "geometry": {"type": "Point", "coordinates": [-77.03066, 38.91722]}}, {"type": "Feature", "properties": {"id": "14TH-093", "name": "Taco Bell Cantina Cantina", "address": "1412 U St NW, Washington, DC, DC, 20009", "category": "Restaurant", "neighborhood": "14th Street Corridor", "rating": 2.8, "reviews": 4, "price": "", "score": 70}, "geometry": {"type": "Point", "coordinates": [-77.0325226435521, 38.91686844103757]}}, {"type": "Feature", "properties": {"id": "14TH-094", "name": "Subway", "address": "2001 14th St NW, Washington, DC, DC, 20009", "category": "Restaurant", "neighborhood": "14th Street Corridor", "rating": 1.8, "reviews": 32, "price": "$", "score": 70}, "geometry": {"type": "Point", "coordinates": [-77.0316912136161, 38.9171629]}}, {"type": "Feature", "properties": {"id": "14TH-095", "name": "Buna Ktchn", "address": "715 Euclid St NW, Washington, DC, DC, 20036", "category": "Coffee", "neighborhood": "14th Street Corridor", "rating": 3.0, "reviews": 1, "price": "", "score": 70}, "geometry": {"type": "Point", "coordinates": [-77.023159, 38.924301]}}, {"type": "Feature", "properties": {"id": "14TH-096", "name": "Cafe & Mercado", "address": "2517 Mozart Pl NW, Washington, DC, DC, 20036", "category": "Coffee", "neighborhood": "14th Street Corridor", "rating": 3.0, "reviews": 1, "price": "", "score": 70}, "geometry": {"type": "Point", "coordinates": [-77.0376011, 38.9237484]}}, {"type": "Feature", "properties": {"id": "14TH-097", "name": "7-Eleven", "address": "3012 14th St NW, Washington, DC, DC, 20009", "category": "Coffee", "neighborhood": "14th Street Corridor", "rating": 1.0, "reviews": 1, "price": "$", "score": 70}, "geometry": {"type": "Point", "coordinates": [-77.0326855033636, 38.9276954469366]}}, {"type": "Feature", "properties": {"id": "14TH-098", "name": "7-Eleven", "address": "1755 Columbia Rd NW, Washington, DC, DC, 20009", "category": "Coffee", "neighborhood": "14th Street Corridor", "rating": 2.0, "reviews": 5, "price": "$", "score": 70}, "geometry": {"type": "Point", "coordinates": [-77.04145, 38.9238799]}}, {"type": "Feature", "properties": {"id": "14TH-099", "name": "Green Druzilla", "address": "1375 Fairmont St NW, Washington, DC, DC, 20009", "category": "Coffee", "neighborhood": "14th Street Corridor", "rating": 0.0, "reviews": 0, "price": "", "score": 70}, "geometry": {"type": "Point", "coordinates": [-77.0318099, 38.9251099]}}, {"type": "Feature", "properties": {"id": "14TH-100", "name": "Tamicakes", "address": "Washington, DC, DC, 20001", "category": "Bakery", "neighborhood": "14th Street Corridor", "rating": 3.2, "reviews": 5, "price": "$$", "score": 70}, "geometry": {"type": "Point", "coordinates": [-77.02021, 38.91409]}}, {"type": "Feature", "properties": {"id": "14TH-101", "name": "Pink Lounge - Jesiree\u2019s", "address": "2434 18th St NW, Washington, DC, DC, 20009", "category": "Wine Bar", "neighborhood": "14th Street Corridor", "rating": 0.0, "reviews": 0, "price": "", "score": 70}, "geometry": {"type": "Point", "coordinates": [-77.04256, 38.92151]}}, {"type": "Feature", "properties": {"id": "14TH-102", "name": "Tipsy Peacock", "address": "2915 Georgia Ave NW, Washington, DC, DC, 20001", "category": "Wine Bar", "neighborhood": "14th Street Corridor", "rating": 0.0, "reviews": 0, "price": "", "score": 70}, "geometry": {"type": "Point", "coordinates": [-77.0227737426758, 38.9277295634702]}}, {"type": "Feature", "properties": {"id": "14TH-103", "name": "Riff Raff", "address": "2333 18th St NW, Washington, DC, DC, 20009", "category": "Bar", "neighborhood": "14th Street Corridor", "rating": 0.0, "reviews": 0, "price": "", "score": 70}, "geometry": {"type": "Point", "coordinates": [-77.0416995, 38.92049244916509]}}, {"type": "Feature", "properties": {"id": "14TH-104", "name": "Agave Room", "address": "2446 18th St NW, Washington, DC, DC, 20009", "category": "Bar", "neighborhood": "14th Street Corridor", "rating": 0.0, "reviews": 0, "price": "", "score": 70}, "geometry": {"type": "Point", "coordinates": [-77.0427, 38.92184]}}, {"type": "Feature", "properties": {"id": "14TH-105", "name": "District Karaoke", "address": "Washington, DC, DC, 20009", "category": "Restaurant", "neighborhood": "14th Street Corridor", "rating": 3.4, "reviews": 5, "price": "$$", "score": 70}, "geometry": {"type": "Point", "coordinates": [-77.0362967, 38.9191485]}}, {"type": "Feature", "properties": {"id": "14TH-106", "name": "Hashtag Lounge", "address": "1359 U St NW, Washington, DC, DC, 20009", "category": "Nightclub", "neighborhood": "14th Street Corridor", "rating": 0.0, "reviews": 0, "price": "", "score": 70}, "geometry": {"type": "Point", "coordinates": [-77.031501, 38.917151]}}, {"type": "Feature", "properties": {"id": "14TH-107", "name": "Habesha Cafe & Restaurant", "address": "1119 V St NW, Washington, DC, DC, 20009", "category": "Cafe", "neighborhood": "14th Street Corridor", "rating": 0.0, "reviews": 0, "price": "", "score": 70}, "geometry": {"type": "Point", "coordinates": [-77.0278473, 38.9183197]}}, {"type": "Feature", "properties": {"id": "14TH-108", "name": "WOW Caf\u00e9", "address": "2400 6th St NW, Washington, DC, DC, 20059", "category": "Cafe", "neighborhood": "14th Street Corridor", "rating": 0.0, "reviews": 0, "price": "", "score": 70}, "geometry": {"type": "Point", "coordinates": [-77.021722, 38.922928]}}, {"type": "Feature", "properties": {"id": "ADAM-001", "name": "Los Hermanos", "address": "1426 Park Rd NW, Washington, DC, DC, 20010", "category": "Restaurant", "neighborhood": "Adams Morgan", "rating": 4.5, "reviews": 666, "price": "$$", "score": 95}, "geometry": {"type": "Point", "coordinates": [-77.0337905883789, 38.9304580688477]}}, {"type": "Feature", "properties": {"id": "ADAM-002", "name": "Rose Ave Bakery", "address": "2633 Connecticut Ave NW, Washington, DC, DC, 20008", "category": "Bakery", "neighborhood": "Adams Morgan", "rating": 4.7, "reviews": 568, "price": "$$", "score": 95}, "geometry": {"type": "Point", "coordinates": [-77.05180962925937, 38.92457969751227]}}, {"type": "Feature", "properties": {"id": "ADAM-003", "name": "Hot N Juicy Crawfish", "address": "2651 Connecticut Ave NW, Washington, DC, DC, 20008", "category": "Restaurant", "neighborhood": "Adams Morgan", "rating": 4.0, "reviews": 2219, "price": "$$$", "score": 93}, "geometry": {"type": "Point", "coordinates": [-77.052, 38.92503]}}, {"type": "Feature", "properties": {"id": "ADAM-004", "name": "Letena Ethiopian Restaurant", "address": "3100 14th St NW, Washington, DC, DC, 20010", "category": "Restaurant", "neighborhood": "Adams Morgan", "rating": 4.6, "reviews": 296, "price": "$$", "score": 92}, "geometry": {"type": "Point", "coordinates": [-77.033459, 38.930399]}}, {"type": "Feature", "properties": {"id": "ADAM-005", "name": "Mount Desert Island Ice Cream", "address": "3110 Mt Pleasant St NW, Washington, DC, DC, 20010", "category": "Coffee", "neighborhood": "Adams Morgan", "rating": 4.6, "reviews": 200, "price": "$$", "score": 92}, "geometry": {"type": "Point", "coordinates": [-77.0377248, 38.9291879]}}, {"type": "Feature", "properties": {"id": "ADAM-006", "name": "Purple Patch", "address": "3155 Mt Pleasant St NW, Washington, DC, DC, 20010", "category": "Bar", "neighborhood": "Adams Morgan", "rating": 4.4, "reviews": 1597, "price": "$$", "score": 90}, "geometry": {"type": "Point", "coordinates": [-77.03762, 38.93057]}}, {"type": "Feature", "properties": {"id": "ADAM-007", "name": "Beau Thai - Mount Pleasant", "address": "3162 Mt Pleasant St, Washington, DC, DC, 20010", "category": "Bar", "neighborhood": "Adams Morgan", "rating": 4.0, "reviews": 511, "price": "$$", "score": 90}, "geometry": {"type": "Point", "coordinates": [-77.0380164, 38.9303762]}}, {"type": "Feature", "properties": {"id": "ADAM-008", "name": "Mama Ayesha's Restaurant", "address": "1967 Calvert St NW, Washington, DC, DC, 20009", "category": "Restaurant", "neighborhood": "Adams Morgan", "rating": 4.0, "reviews": 614, "price": "$$", "score": 90}, "geometry": {"type": "Point", "coordinates": [-77.04676, 38.92349]}}, {"type": "Feature", "properties": {"id": "ADAM-009", "name": "Sushi Ogawa", "address": "2100 Connecticut Ave NW, Washington, DC, DC, 20008", "category": "Restaurant", "neighborhood": "Adams Morgan", "rating": 4.1, "reviews": 315, "price": "$$$$", "score": 90}, "geometry": {"type": "Point", "coordinates": [-77.0477121, 38.917947]}}, {"type": "Feature", "properties": {"id": "ADAM-010", "name": "Bombay Street Food", "address": "1413 Park Rd NW, Washington, DC, DC, 20010", "category": "Restaurant", "neighborhood": "Adams Morgan", "rating": 4.3, "reviews": 629, "price": "$$", "score": 90}, "geometry": {"type": "Point", "coordinates": [-77.03339, 38.9306]}}, {"type": "Feature", "properties": {"id": "ADAM-011", "name": "Sofra", "address": "2623 Connecticut Ave NW, Washington, DC, DC, 20008", "category": "Bar", "neighborhood": "Adams Morgan", "rating": 4.5, "reviews": 77, "price": "", "score": 88}, "geometry": {"type": "Point", "coordinates": [-77.05152, 38.92423]}}, {"type": "Feature", "properties": {"id": "ADAM-012", "name": "OKPB", "address": "3165 Mt Pleasant St NW, Washington, DC, DC, 20010", "category": "Bar", "neighborhood": "Adams Morgan", "rating": 4.5, "reviews": 63, "price": "", "score": 88}, "geometry": {"type": "Point", "coordinates": [-77.03782, 38.93075]}}, {"type": "Feature", "properties": {"id": "ADAM-013", "name": "HILO Poke & Sushi", "address": "2439 18th St NW, Washington, DC, DC, 20009", "category": "Restaurant", "neighborhood": "Adams Morgan", "rating": 4.6, "reviews": 58, "price": "$$", "score": 88}, "geometry": {"type": "Point", "coordinates": [-77.04208, 38.92154]}}, {"type": "Feature", "properties": {"id": "ADAM-014", "name": "Izumi Japanese Restaurant", "address": "1832 Columbia Rd NW, Washington, DC, DC, 20009", "category": "Restaurant", "neighborhood": "Adams Morgan", "rating": 4.7, "reviews": 56, "price": "", "score": 88}, "geometry": {"type": "Point", "coordinates": [-77.04311, 38.92177]}}, {"type": "Feature", "properties": {"id": "ADAM-015", "name": "Thai And Time Again", "address": "2311 Calvert St NW, Washington, DC, DC, 20748", "category": "Restaurant", "neighborhood": "Adams Morgan", "rating": 4.5, "reviews": 62, "price": "$$", "score": 88}, "geometry": {"type": "Point", "coordinates": [-77.05098199999999, 38.92376109199186]}}, {"type": "Feature", "properties": {"id": "ADAM-016", "name": "KooKoo Restaurant & Lounge", "address": "3310 14th St NW, Washington, DC, DC, 20010", "category": "Restaurant", "neighborhood": "Adams Morgan", "rating": 4.9, "reviews": 91, "price": "", "score": 88}, "geometry": {"type": "Point", "coordinates": [-77.03297, 38.93067]}}, {"type": "Feature", "properties": {"id": "ADAM-017", "name": "Mez\u00e9 Restaurant", "address": "2437 18th St NW, Washington, DC, DC, 20009", "category": "Restaurant", "neighborhood": "Adams Morgan", "rating": 4.0, "reviews": 498, "price": "$$", "score": 87}, "geometry": {"type": "Point", "coordinates": [-77.04195, 38.92147]}}, {"type": "Feature", "properties": {"id": "ADAM-018", "name": "So's Your Mom", "address": "1831 Columbia Rd NW, Washington, DC, DC, 20009", "category": "Restaurant", "neighborhood": "Adams Morgan", "rating": 4.2, "reviews": 392, "price": "$", "score": 87}, "geometry": {"type": "Point", "coordinates": [-77.04383, 38.92171]}}, {"type": "Feature", "properties": {"id": "ADAM-019", "name": "Aladdin's Kitchen", "address": "1782 Florida Ave NW, Washington, DC, DC, 20009", "category": "Restaurant", "neighborhood": "Adams Morgan", "rating": 4.0, "reviews": 293, "price": "$$", "score": 87}, "geometry": {"type": "Point", "coordinates": [-77.04134, 38.9167]}}, {"type": "Feature", "properties": {"id": "ADAM-020", "name": "CAVA", "address": "3105 14th St NW, Washington, DC, DC, 20010", "category": "Restaurant", "neighborhood": "Adams Morgan", "rating": 4.2, "reviews": 289, "price": "$", "score": 87}, "geometry": {"type": "Point", "coordinates": [-77.03237302981955, 38.929365709386694]}}, {"type": "Feature", "properties": {"id": "ADAM-021", "name": "Green Island Cafe", "address": "2327 18th St NW, Washington, DC, DC, 20009", "category": "Bar", "neighborhood": "Adams Morgan", "rating": 5.0, "reviews": 2, "price": "", "score": 85}, "geometry": {"type": "Point", "coordinates": [-77.04172927507626, 38.92042579999999]}}, {"type": "Feature", "properties": {"id": "ADAM-022", "name": "Flavorture", "address": "2609 24th St NW, Washington, DC, DC, 20008", "category": "Bar", "neighborhood": "Adams Morgan", "rating": 4.0, "reviews": 163, "price": "", "score": 85}, "geometry": {"type": "Point", "coordinates": [-77.05238693107673, 38.92404209709753]}}, {"type": "Feature", "properties": {"id": "ADAM-023", "name": "Martha Dear", "address": "3110 Mt Pleasant St NW, Washington, DC, DC, 20010", "category": "Bar", "neighborhood": "Adams Morgan", "rating": 4.4, "reviews": 114, "price": "", "score": 85}, "geometry": {"type": "Point", "coordinates": [-77.037805, 38.929205]}}, {"type": "Feature", "properties": {"id": "ADAM-024", "name": "Via Roma", "address": "2606 Connecticut Ave NW, Washington, DC, DC, 20008", "category": "Bar", "neighborhood": "Adams Morgan", "rating": 4.5, "reviews": 38, "price": "", "score": 85}, "geometry": {"type": "Point", "coordinates": [-77.05212, 38.9239]}}, {"type": "Feature", "properties": {"id": "ADAM-025", "name": "Exhale", "address": "2305 18th St NW, Washington, DC, DC, 20441", "category": "Restaurant", "neighborhood": "Adams Morgan", "rating": 5.0, "reviews": 2, "price": "", "score": 85}, "geometry": {"type": "Point", "coordinates": [-77.04143, 38.9198499]}}, {"type": "Feature", "properties": {"id": "ADAM-026", "name": "New Heights Restaurant", "address": "2317 Calvert St NW, Washington, DC, DC, 20008", "category": "Bar", "neighborhood": "Adams Morgan", "rating": 3.7, "reviews": 287, "price": "$$$", "score": 85}, "geometry": {"type": "Point", "coordinates": [-77.05225, 38.92372]}}, {"type": "Feature", "properties": {"id": "ADAM-027", "name": "Falafel Sam", "address": "2425 18th St NW, Washington, DC, DC, 20009", "category": "Restaurant", "neighborhood": "Adams Morgan", "rating": 4.9, "reviews": 17, "price": "", "score": 85}, "geometry": {"type": "Point", "coordinates": [-77.04195798560977, 38.9211817]}}, {"type": "Feature", "properties": {"id": "ADAM-028", "name": "Oh Mama Grill", "address": "1829 Columbia Rd NW, Washington, DC, DC, 20009", "category": "Restaurant", "neighborhood": "Adams Morgan", "rating": 4.6, "reviews": 41, "price": "", "score": 85}, "geometry": {"type": "Point", "coordinates": [-77.04376, 38.92174]}}, {"type": "Feature", "properties": {"id": "ADAM-029", "name": "Jyoti Indian Cuisine", "address": "2433 18th St NW, Washington, DC, DC, 20009", "category": "Restaurant", "neighborhood": "Adams Morgan", "rating": 3.8, "reviews": 510, "price": "$$", "score": 85}, "geometry": {"type": "Point", "coordinates": [-77.04192, 38.92138]}}, {"type": "Feature", "properties": {"id": "ADAM-030", "name": "La Grotta DC", "address": "2309 18th St NW, Washington, DC, DC, 20009", "category": "Restaurant", "neighborhood": "Adams Morgan", "rating": 4.6, "reviews": 21, "price": "", "score": 85}, "geometry": {"type": "Point", "coordinates": [-77.04148107454263, 38.92017313825876]}}, {"type": "Feature", "properties": {"id": "ADAM-031", "name": "Pitango Gelato & Caf\u00e9", "address": "1841 Columbia Rd, Washington, DC, DC, 20009", "category": "Restaurant", "neighborhood": "Adams Morgan", "rating": 4.2, "reviews": 187, "price": "$", "score": 85}, "geometry": {"type": "Point", "coordinates": [-77.04392, 38.92148]}}, {"type": "Feature", "properties": {"id": "ADAM-032", "name": "Donsak Thai Restaurant ", "address": "2608 Connecticut Ave NW, Washington, DC, DC, 20008", "category": "Restaurant", "neighborhood": "Adams Morgan", "rating": 4.4, "reviews": 135, "price": "", "score": 85}, "geometry": {"type": "Point", "coordinates": [-77.05212, 38.92398]}}, {"type": "Feature", "properties": {"id": "ADAM-033", "name": "New York Grill", "address": "1764 Columbia Rd NW, Washington, DC, DC, 20009", "category": "Restaurant", "neighborhood": "Adams Morgan", "rating": 4.7, "reviews": 13, "price": "", "score": 85}, "geometry": {"type": "Point", "coordinates": [-77.040987, 38.923592]}}, {"type": "Feature", "properties": {"id": "ADAM-034", "name": "Himalayan Heritage Restaurant", "address": "2305 18th St NW, Washington, DC, DC, 20009", "category": "Restaurant", "neighborhood": "Adams Morgan", "rating": 3.7, "reviews": 590, "price": "$$", "score": 85}, "geometry": {"type": "Point", "coordinates": [-77.04143, 38.9198499]}}, {"type": "Feature", "properties": {"id": "ADAM-035", "name": "Umi Japanese Cuisine", "address": "2625 Connecticut Ave, Washington, DC, DC, 20008", "category": "Restaurant", "neighborhood": "Adams Morgan", "rating": 3.9, "reviews": 594, "price": "$$", "score": 85}, "geometry": {"type": "Point", "coordinates": [-77.05148, 38.92431]}}, {"type": "Feature", "properties": {"id": "ADAM-036", "name": "El Pollo Sabroso", "address": "3153 Mt Pleasant St NW, Washington, DC, DC, 20010", "category": "Restaurant", "neighborhood": "Adams Morgan", "rating": 4.0, "reviews": 109, "price": "$", "score": 85}, "geometry": {"type": "Point", "coordinates": [-77.0378048, 38.9304217]}}, {"type": "Feature", "properties": {"id": "ADAM-037", "name": "Lebanese Taverna", "address": "2641 Connecticut Ave NW, Washington, DC, DC, 20008", "category": "Restaurant", "neighborhood": "Adams Morgan", "rating": 3.7, "reviews": 871, "price": "$$", "score": 85}, "geometry": {"type": "Point", "coordinates": [-77.0517799, 38.92477]}}, {"type": "Feature", "properties": {"id": "ADAM-038", "name": "Yours Cafe", "address": "2619 Connecticut Ave NW, Washington, DC, DC, 20008", "category": "Coffee", "neighborhood": "Adams Morgan", "rating": 4.8, "reviews": 47, "price": "", "score": 85}, "geometry": {"type": "Point", "coordinates": [-77.0514, 38.92417]}}, {"type": "Feature", "properties": {"id": "ADAM-039", "name": "Subway", "address": "2469 18th St NW, Washington, DC, DC, 20009", "category": "Restaurant", "neighborhood": "Adams Morgan", "rating": 4.7, "reviews": 3, "price": "", "score": 85}, "geometry": {"type": "Point", "coordinates": [-77.042226, 38.922246]}}, {"type": "Feature", "properties": {"id": "ADAM-040", "name": "NaanWise", "address": "2635 Connecticut Ave NW, Washington, DC, DC, 20008", "category": "Restaurant", "neighborhood": "Adams Morgan", "rating": 4.3, "reviews": 135, "price": "$$", "score": 85}, "geometry": {"type": "Point", "coordinates": [-77.05171, 38.92465]}}, {"type": "Feature", "properties": {"id": "ADAM-041", "name": "Open City", "address": "2331 Calvert St NW, Washington, DC, DC, 20008", "category": "Restaurant", "neighborhood": "Adams Morgan", "rating": 3.5, "reviews": 1901, "price": "$$", "score": 85}, "geometry": {"type": "Point", "coordinates": [-77.05237, 38.92372]}}, {"type": "Feature", "properties": {"id": "ADAM-042", "name": "Dave's Hot Chicken", "address": "3301 14th St NW, Washington, DC, DC, 20010", "category": "Restaurant", "neighborhood": "Adams Morgan", "rating": 4.2, "reviews": 110, "price": "", "score": 85}, "geometry": {"type": "Point", "coordinates": [-77.0324284, 38.9306286]}}, {"type": "Feature", "properties": {"id": "ADAM-043", "name": "Duccini's", "address": "1778 U St NW, Washington, DC, DC, 20009", "category": "Restaurant", "neighborhood": "Adams Morgan", "rating": 3.7, "reviews": 747, "price": "$", "score": 85}, "geometry": {"type": "Point", "coordinates": [-77.041221, 38.916732]}}, {"type": "Feature", "properties": {"id": "ADAM-044", "name": "Pho 14", "address": "1436 Park Rd NW, Washington, DC, DC, 20010", "category": "Restaurant", "neighborhood": "Adams Morgan", "rating": 3.8, "reviews": 875, "price": "$$", "score": 85}, "geometry": {"type": "Point", "coordinates": [-77.033999, 38.930646]}}, {"type": "Feature", "properties": {"id": "ADAM-045", "name": "Karma Kitchen", "address": "2305 18th St NW, Washington, DC, DC, 20009", "category": "Restaurant", "neighborhood": "Adams Morgan", "rating": 4.5, "reviews": 2, "price": "$", "score": 85}, "geometry": {"type": "Point", "coordinates": [-77.0417071, 38.9198206]}}, {"type": "Feature", "properties": {"id": "ADAM-046", "name": "DC Bites", "address": "2604 Connecticut Ave NW, Washington, DC, DC, 20008", "category": "Restaurant", "neighborhood": "Adams Morgan", "rating": 4.7, "reviews": 13, "price": "", "score": 85}, "geometry": {"type": "Point", "coordinates": [-77.0520726, 38.9238548961687]}}, {"type": "Feature", "properties": {"id": "ADAM-047", "name": "Each Peach Market", "address": "3068 Mt Pleasant St, Washington, DC, DC, 20009", "category": "Restaurant", "neighborhood": "Adams Morgan", "rating": 4.0, "reviews": 101, "price": "$$", "score": 85}, "geometry": {"type": "Point", "coordinates": [-77.0374018, 38.9285442]}}, {"type": "Feature", "properties": {"id": "ADAM-048", "name": "Super Tacos & Bakery", "address": "1762 Columbia Rd NW, Washington, DC, DC, 20009", "category": "Restaurant", "neighborhood": "Adams Morgan", "rating": 5.0, "reviews": 1, "price": "", "score": 85}, "geometry": {"type": "Point", "coordinates": [-77.040889, 38.923561]}}, {"type": "Feature", "properties": {"id": "ADAM-049", "name": "La Dona Cafe", "address": "3103 Mt Pleasant St NW, Washington, DC, DC, 20010", "category": "Coffee", "neighborhood": "Adams Morgan", "rating": 5.0, "reviews": 5, "price": "", "score": 85}, "geometry": {"type": "Point", "coordinates": [-77.03716960000001, 38.928888516827286]}}, {"type": "Feature", "properties": {"id": "ADAM-050", "name": "Capital Laughs", "address": "2323 18th St NW, Washington, DC, DC, 20009", "category": "Restaurant", "neighborhood": "Adams Morgan", "rating": 5.0, "reviews": 3, "price": "$", "score": 85}, "geometry": {"type": "Point", "coordinates": [-77.0415725708008, 38.9203262329102]}}, {"type": "Feature", "properties": {"id": "ADAM-051", "name": "Tamashaa", "address": "3115 14th St NW, Washington, DC, DC, 20010", "category": "Bar", "neighborhood": "Adams Morgan", "rating": 4.4, "reviews": 86, "price": "", "score": 83}, "geometry": {"type": "Point", "coordinates": [-77.032287, 38.929705]}}, {"type": "Feature", "properties": {"id": "ADAM-052", "name": "Namak", "address": "1813 Columbia Rd NW, Washington, DC, DC, 20009", "category": "Restaurant", "neighborhood": "Adams Morgan", "rating": 4.4, "reviews": 81, "price": "", "score": 83}, "geometry": {"type": "Point", "coordinates": [-77.0435015449828, 38.92206866693497]}}, {"type": "Feature", "properties": {"id": "ADAM-053", "name": "No Goodbyes", "address": "1770 Euclid St NW, Washington, DC, DC, 20009", "category": "Restaurant", "neighborhood": "Adams Morgan", "rating": 4.1, "reviews": 85, "price": "", "score": 83}, "geometry": {"type": "Point", "coordinates": [-77.04172, 38.92261]}}, {"type": "Feature", "properties": {"id": "ADAM-054", "name": "Elfegne Ethiopian Cuisine", "address": "2420 18th St NW, Washington, DC, DC, 20009", "category": "Restaurant", "neighborhood": "Adams Morgan", "rating": 4.4, "reviews": 93, "price": "", "score": 83}, "geometry": {"type": "Point", "coordinates": [-77.042476, 38.921294]}}, {"type": "Feature", "properties": {"id": "ADAM-055", "name": "Isshin Asian Bistro", "address": "2418 18th St NW, Washington, DC, DC, 20009", "category": "Restaurant", "neighborhood": "Adams Morgan", "rating": 4.4, "reviews": 55, "price": "", "score": 83}, "geometry": {"type": "Point", "coordinates": [-77.042485, 38.921224]}}, {"type": "Feature", "properties": {"id": "ADAM-056", "name": "Bombay Street Food", "address": "1915 18th Street NW, Washington, DC, DC, 20010", "category": "Restaurant", "neighborhood": "Adams Morgan", "rating": 4.0, "reviews": 52, "price": "", "score": 83}, "geometry": {"type": "Point", "coordinates": [-77.04139, 38.916029]}}, {"type": "Feature", "properties": {"id": "ADAM-057", "name": "Petit Monde Bistro & Cafe", "address": "2653 Connecticut Ave NW, Washington, DC, DC, 20008", "category": "Cafe", "neighborhood": "Adams Morgan", "rating": 4.2, "reviews": 80, "price": "$$", "score": 83}, "geometry": {"type": "Point", "coordinates": [-77.05206, 38.9251]}}, {"type": "Feature", "properties": {"id": "ADAM-058", "name": "Pho 72", "address": "1376 Park Rd NW, Washington, DC, DC, 20010", "category": "Restaurant", "neighborhood": "Adams Morgan", "rating": 4.3, "reviews": 65, "price": "$$", "score": 83}, "geometry": {"type": "Point", "coordinates": [-77.03185, 38.93044]}}, {"type": "Feature", "properties": {"id": "ADAM-059", "name": "The Grill From Ipanema", "address": "1858 Columbia Rd NW, Washington, DC, DC, 20009", "category": "Restaurant", "neighborhood": "Adams Morgan", "rating": 3.8, "reviews": 459, "price": "$$", "score": 82}, "geometry": {"type": "Point", "coordinates": [-77.04351, 38.92095]}}, {"type": "Feature", "properties": {"id": "ADAM-060", "name": "Han Palace", "address": "2649 Connecticut Ave NW, Washington, DC, DC, 20008", "category": "Restaurant", "neighborhood": "Adams Morgan", "rating": 3.9, "reviews": 343, "price": "$$", "score": 82}, "geometry": {"type": "Point", "coordinates": [-77.05199, 38.92497]}}, {"type": "Feature", "properties": {"id": "ADAM-061", "name": "Pizza Mart", "address": "2445 18th St NW, Washington, DC, DC, 20009", "category": "Restaurant", "neighborhood": "Adams Morgan", "rating": 3.7, "reviews": 205, "price": "$", "score": 82}, "geometry": {"type": "Point", "coordinates": [-77.04201, 38.92166]}}, {"type": "Feature", "properties": {"id": "ADAM-062", "name": "Nando's PERi-PERi", "address": "2631 Connecticut Ave NW, Washington, DC, DC, 20008", "category": "Restaurant", "neighborhood": "Adams Morgan", "rating": 3.8, "reviews": 232, "price": "$$", "score": 82}, "geometry": {"type": "Point", "coordinates": [-77.0516971, 38.9246506]}}, {"type": "Feature", "properties": {"id": "ADAM-063", "name": "Jumbo Slice Pizza", "address": "2341 18th St NW, Washington, DC, DC, 20009", "category": "Restaurant", "neighborhood": "Adams Morgan", "rating": 3.5, "reviews": 287, "price": "$", "score": 82}, "geometry": {"type": "Point", "coordinates": [-77.0416946411133, 38.9207000732422]}}, {"type": "Feature", "properties": {"id": "ADAM-064", "name": "Rajaji Fine Indian Cuisine", "address": "2603 Connecticut Ave NW, Washington, DC, DC, 20008", "category": "Coffee", "neighborhood": "Adams Morgan", "rating": 3.8, "reviews": 418, "price": "$$", "score": 82}, "geometry": {"type": "Point", "coordinates": [-77.05127, 38.92394]}}, {"type": "Feature", "properties": {"id": "ADAM-065", "name": "El Rinconcito II", "address": "1326 Park Rd NW, Washington, DC, DC, 20010", "category": "Restaurant", "neighborhood": "Adams Morgan", "rating": 3.9, "reviews": 259, "price": "$$", "score": 82}, "geometry": {"type": "Point", "coordinates": [-77.03079834333217, 38.9307625844881]}}, {"type": "Feature", "properties": {"id": "ADAM-066", "name": "Shenanigan's Irish Pub", "address": "2450 18th St NW, Washington, DC, DC, 20009", "category": "Restaurant", "neighborhood": "Adams Morgan", "rating": 3.5, "reviews": 116, "price": "$", "score": 80}, "geometry": {"type": "Point", "coordinates": [-77.042607737955, 38.9217687710409]}}, {"type": "Feature", "properties": {"id": "ADAM-067", "name": "Bedrock Billiards", "address": "1841 Columbia Rd NW, Washington, DC, DC, 20009", "category": "Bar", "neighborhood": "Adams Morgan", "rating": 3.6, "reviews": 105, "price": "$$", "score": 80}, "geometry": {"type": "Point", "coordinates": [-77.043924, 38.921484]}}, {"type": "Feature", "properties": {"id": "ADAM-068", "name": "Air Restaurant + Lounge", "address": "2473 18th St NW, Washington, DC, DC, 20009", "category": "Restaurant", "neighborhood": "Adams Morgan", "rating": 2.9, "reviews": 262, "price": "$$$", "score": 80}, "geometry": {"type": "Point", "coordinates": [-77.04235441958386, 38.92234381311926]}}, {"type": "Feature", "properties": {"id": "ADAM-069", "name": "Bar del Monte", "address": "3054 Mount Pleasant St NW, Washington, DC, DC, 20009", "category": "Wine Bar", "neighborhood": "Adams Morgan", "rating": 4.0, "reviews": 27, "price": "", "score": 80}, "geometry": {"type": "Point", "coordinates": [-77.0374047739448, 38.92825729999999]}}, {"type": "Feature", "properties": {"id": "ADAM-070", "name": "Secret Garden Hookah Bar", "address": "2327 18th St NW, Washington, DC, DC, 20009", "category": "Restaurant", "neighborhood": "Adams Morgan", "rating": 4.0, "reviews": 2, "price": "", "score": 80}, "geometry": {"type": "Point", "coordinates": [-77.04166251165663, 38.92043694256266]}}, {"type": "Feature", "properties": {"id": "ADAM-071", "name": "Crown Cafe", "address": "2409 18th St, Washington, DC, DC, 20009", "category": "Restaurant", "neighborhood": "Adams Morgan", "rating": 4.0, "reviews": 2, "price": "$", "score": 80}, "geometry": {"type": "Point", "coordinates": [-77.0419154574646, 38.9202709701307]}}, {"type": "Feature", "properties": {"id": "ADAM-072", "name": "The Raven Grill", "address": "3125 Mt Pleasant St NW, Washington, DC, DC, 20010", "category": "Bar", "neighborhood": "Adams Morgan", "rating": 3.8, "reviews": 149, "price": "$", "score": 80}, "geometry": {"type": "Point", "coordinates": [-77.0373, 38.92941]}}, {"type": "Feature", "properties": {"id": "ADAM-073", "name": "Ercilia's Restaurant", "address": "3070 Mt Pleasant St NW, Washington, DC, DC, 20009", "category": "Restaurant", "neighborhood": "Adams Morgan", "rating": 3.9, "reviews": 176, "price": "$", "score": 80}, "geometry": {"type": "Point", "coordinates": [-77.037538, 38.928627588147826]}}, {"type": "Feature", "properties": {"id": "ADAM-074", "name": "Bombay Street Food Express", "address": "1915 18th St NW, Washington, DC, DC, 20009", "category": "Restaurant", "neighborhood": "Adams Morgan", "rating": 4.1, "reviews": 24, "price": "", "score": 80}, "geometry": {"type": "Point", "coordinates": [-77.04139, 38.916029]}}, {"type": "Feature", "properties": {"id": "ADAM-075", "name": "Pica Taco", "address": "1629 Columbia Rd NW, Washington, DC, DC, 20009", "category": "Restaurant", "neighborhood": "Adams Morgan", "rating": 3.7, "reviews": 154, "price": "$", "score": 80}, "geometry": {"type": "Point", "coordinates": [-77.0372559110401, 38.92640435327973]}}, {"type": "Feature", "properties": {"id": "ADAM-076", "name": "DC Boba", "address": "1403 Park Rd NW, Washington, DC, DC, 20010", "category": "Coffee", "neighborhood": "Adams Morgan", "rating": 4.1, "reviews": 47, "price": "", "score": 80}, "geometry": {"type": "Point", "coordinates": [-77.03317, 38.93052]}}, {"type": "Feature", "properties": {"id": "ADAM-077", "name": "Cafe Cielo", "address": "1432 Park Rd NW, Washington, DC, DC, 20010", "category": "Bakery", "neighborhood": "Adams Morgan", "rating": 4.0, "reviews": 4, "price": "", "score": 80}, "geometry": {"type": "Point", "coordinates": [-77.03393830000002, 38.93061294752586]}}, {"type": "Feature", "properties": {"id": "ADAM-078", "name": "GALA Hispanic Theatre", "address": "3333 14th St NW, Washington, DC, DC, 20010", "category": "Nightclub", "neighborhood": "Adams Morgan", "rating": 4.3, "reviews": 29, "price": "$$", "score": 80}, "geometry": {"type": "Point", "coordinates": [-77.0325533, 38.9305743]}}, {"type": "Feature", "properties": {"id": "ADAM-079", "name": "Columbia Heights Education Campus", "address": "3101 16th St NW, Washington, DC, DC, 20010", "category": "Nightclub", "neighborhood": "Adams Morgan", "rating": 4.0, "reviews": 2, "price": "", "score": 80}, "geometry": {"type": "Point", "coordinates": [-77.0361461775741, 38.9293316742008]}}, {"type": "Feature", "properties": {"id": "ADAM-080", "name": "Exotic Hookah Lounge", "address": "2409 18th St NW, Washington, DC, DC, 20009", "category": "Restaurant", "neighborhood": "Adams Morgan", "rating": 3.5, "reviews": 50, "price": "$", "score": 78}, "geometry": {"type": "Point", "coordinates": [-77.0418807864189, 38.9205904913195]}}, {"type": "Feature", "properties": {"id": "ADAM-081", "name": "Grand Central", "address": "2447 18th St NW, Washington, DC, DC, 20009", "category": "Bar", "neighborhood": "Adams Morgan", "rating": 3.1, "reviews": 226, "price": "$$", "score": 77}, "geometry": {"type": "Point", "coordinates": [-77.0426598048989, 38.92098621688569]}}, {"type": "Feature", "properties": {"id": "ADAM-082", "name": "Soussi Restaurant", "address": "2228 18th St NW, Washington, DC, DC, 20009", "category": "Restaurant", "neighborhood": "Adams Morgan", "rating": 3.4, "reviews": 367, "price": "$$", "score": 77}, "geometry": {"type": "Point", "coordinates": [-77.0418853759766, 38.9195365905762]}}, {"type": "Feature", "properties": {"id": "ADAM-083", "name": "LiLLiES Restaurant & Bar", "address": "2915 Connecticut Ave NW, Washington, DC, DC, 20008", "category": "Bar", "neighborhood": "Adams Morgan", "rating": 3.3, "reviews": 353, "price": "$$", "score": 77}, "geometry": {"type": "Point", "coordinates": [-77.0541245, 38.9284266]}}, {"type": "Feature", "properties": {"id": "ADAM-084", "name": "Lou's City Bar", "address": "1400 Irving St NW, Washington, DC, DC, 20010", "category": "Bar", "neighborhood": "Adams Morgan", "rating": 2.9, "reviews": 292, "price": "$$", "score": 77}, "geometry": {"type": "Point", "coordinates": [-77.0336599560566, 38.9285983290271]}}, {"type": "Feature", "properties": {"id": "ADAM-085", "name": "City Lights of China", "address": "2443 18th St NW, Washington, DC, DC, 20009", "category": "Restaurant", "neighborhood": "Adams Morgan", "rating": 3.2, "reviews": 440, "price": "$$", "score": 77}, "geometry": {"type": "Point", "coordinates": [-77.04208281165653, 38.92157367830591]}}, {"type": "Feature", "properties": {"id": "ADAM-086", "name": "Dos Gringos Cafe", "address": "3116 Mt Pleasant St NW, Washington, DC, DC, 20010", "category": "Coffee", "neighborhood": "Adams Morgan", "rating": 3.4, "reviews": 224, "price": "$", "score": 77}, "geometry": {"type": "Point", "coordinates": [-77.03793, 38.92941]}}, {"type": "Feature", "properties": {"id": "ADAM-087", "name": "Banana Leaves", "address": "2020 Florida Ave NW, Washington, DC, DC, 20009", "category": "Restaurant", "neighborhood": "Adams Morgan", "rating": 3.3, "reviews": 438, "price": "$$", "score": 77}, "geometry": {"type": "Point", "coordinates": [-77.0457941713932, 38.9144198941177]}}, {"type": "Feature", "properties": {"id": "ADAM-088", "name": "Queen Cafe Hookah", "address": "2405 18th St NW, Washington, DC, DC, 20009", "category": "Restaurant", "neighborhood": "Adams Morgan", "rating": 3.4, "reviews": 105, "price": "$$", "score": 75}, "geometry": {"type": "Point", "coordinates": [-77.04171, 38.92074]}}, {"type": "Feature", "properties": {"id": "ADAM-089", "name": "The Armory", "address": "1838 18th St, Washington, DC, DC, 20009", "category": "Bar", "neighborhood": "Adams Morgan", "rating": 3.5, "reviews": 6, "price": "$$", "score": 75}, "geometry": {"type": "Point", "coordinates": [-77.0417849, 38.9152767]}}, {"type": "Feature", "properties": {"id": "ADAM-090", "name": "Toku Japanese and Asian Cuisine", "address": "2439 18th ST N.W., Washington, DC, DC, 20009", "category": "Restaurant", "neighborhood": "Adams Morgan", "rating": 3.4, "reviews": 129, "price": "$$", "score": 75}, "geometry": {"type": "Point", "coordinates": [-77.04197529999999, 38.9215626]}}, {"type": "Feature", "properties": {"id": "ADAM-091", "name": "Muzette Karaoke & Restaurant", "address": "2305 18th St NW, Washington, DC, DC, 20009", "category": "Restaurant", "neighborhood": "Adams Morgan", "rating": 3.1, "reviews": 193, "price": "$$", "score": 75}, "geometry": {"type": "Point", "coordinates": [-77.04143, 38.9198499]}}, {"type": "Feature", "properties": {"id": "ADAM-092", "name": "Kachis Tacos and Cantina", "address": "2307 18th St NW, Washington, DC, DC, 20009", "category": "Restaurant", "neighborhood": "Adams Morgan", "rating": 3.7, "reviews": 31, "price": "", "score": 75}, "geometry": {"type": "Point", "coordinates": [-77.04144, 38.91995]}}, {"type": "Feature", "properties": {"id": "ADAM-093", "name": "My Canton Restaurant", "address": "1772 Columbia Rd NW, Washington, DC, DC, 20009", "category": "Restaurant", "neighborhood": "Adams Morgan", "rating": 3.6, "reviews": 10, "price": "", "score": 75}, "geometry": {"type": "Point", "coordinates": [-77.041142, 38.9234179]}}, {"type": "Feature", "properties": {"id": "ADAM-094", "name": "Eastern Carryout", "address": "1784 Florida Ave NW, Washington, DC, DC, 20009", "category": "Restaurant", "neighborhood": "Adams Morgan", "rating": 3.3, "reviews": 149, "price": "$", "score": 75}, "geometry": {"type": "Point", "coordinates": [-77.041397, 38.91669]}}, {"type": "Feature", "properties": {"id": "ADAM-095", "name": "Eddie's Cafe", "address": "2600 Connecticut Ave NW, Washington, DC, DC, 20008", "category": "Restaurant", "neighborhood": "Adams Morgan", "rating": 3.3, "reviews": 161, "price": "$", "score": 75}, "geometry": {"type": "Point", "coordinates": [-77.05199, 38.92371]}}, {"type": "Feature", "properties": {"id": "ADAM-096", "name": "Marquee Bar And Lounge", "address": "2500 Calvert St NW, Washington, DC, DC, 20008", "category": "Bar", "neighborhood": "Adams Morgan", "rating": 3.4, "reviews": 12, "price": "$$$", "score": 73}, "geometry": {"type": "Point", "coordinates": [-77.053818, 38.922626]}}, {"type": "Feature", "properties": {"id": "ADAM-097", "name": "Passato Pizza & Grill", "address": "2455 18th St NW, Washington, DC, DC, 20009", "category": "Restaurant", "neighborhood": "Adams Morgan", "rating": 2.8, "reviews": 82, "price": "$", "score": 73}, "geometry": {"type": "Point", "coordinates": [-77.04202029999999, 38.92199327725469]}}, {"type": "Feature", "properties": {"id": "ADAM-098", "name": "McDonald's", "address": "2616 Coneecticut Ave NW, Washington, DC, DC, 20008", "category": "Coffee", "neighborhood": "Adams Morgan", "rating": 2.4, "reviews": 58, "price": "$", "score": 73}, "geometry": {"type": "Point", "coordinates": [-77.05229, 38.92415]}}, {"type": "Feature", "properties": {"id": "ADAM-099", "name": "Morsel's", "address": "2500 Calvert St NW, Washington, DC, DC, 20008", "category": "Coffee", "neighborhood": "Adams Morgan", "rating": 2.8, "reviews": 4, "price": "$$$", "score": 73}, "geometry": {"type": "Point", "coordinates": [-77.0538241064872, 38.922855072868]}}, {"type": "Feature", "properties": {"id": "ADAM-100", "name": "Starbucks", "address": "3107 14th St NW, Washington, DC, DC, 20010", "category": "Coffee", "neighborhood": "Adams Morgan", "rating": 2.7, "reviews": 77, "price": "$$", "score": 73}, "geometry": {"type": "Point", "coordinates": [-77.03247, 38.92942]}}, {"type": "Feature", "properties": {"id": "ADAM-101", "name": "Phoenix Restaurant Lounge", "address": "2434 18th St NW, Washington, DC, DC, 20009", "category": "Restaurant", "neighborhood": "Adams Morgan", "rating": 1.5, "reviews": 2, "price": "", "score": 70}, "geometry": {"type": "Point", "coordinates": [-77.04267, 38.92147]}}, {"type": "Feature", "properties": {"id": "ADAM-102", "name": "Princess Cafe", "address": "2420 18th St NW, Washington, DC, DC, 20009", "category": "Restaurant", "neighborhood": "Adams Morgan", "rating": 2.7, "reviews": 3, "price": "$$", "score": 70}, "geometry": {"type": "Point", "coordinates": [-77.0425186157227, 38.9212837219238]}}, {"type": "Feature", "properties": {"id": "ADAM-103", "name": "Karma Hookah Bar", "address": "2409 18th St NW, Washington, DC, DC, 20009", "category": "Restaurant", "neighborhood": "Adams Morgan", "rating": 0.0, "reviews": 0, "price": "", "score": 70}, "geometry": {"type": "Point", "coordinates": [-77.04174, 38.92083]}}, {"type": "Feature", "properties": {"id": "ADAM-104", "name": "Hassan's Rumpus Room", "address": "2406 18th St NW, Washington, DC, DC, 20009", "category": "Bar", "neighborhood": "Adams Morgan", "rating": 0.0, "reviews": 0, "price": "", "score": 70}, "geometry": {"type": "Point", "coordinates": [-77.042366027832, 38.9208869934082]}}, {"type": "Feature", "properties": {"id": "ADAM-105", "name": "Smokin Aces Hookah Lounge", "address": "1826 Columbia Rd, Washington, DC, DC, 20009", "category": "Restaurant", "neighborhood": "Adams Morgan", "rating": 0.0, "reviews": 0, "price": "", "score": 70}, "geometry": {"type": "Point", "coordinates": [-77.0430755615234, 38.9219245910645]}}, {"type": "Feature", "properties": {"id": "ADAM-106", "name": "Chacho Outpost", "address": "1815 Adams Mill Rd NW, Washington, DC, DC, 20009", "category": "Bar", "neighborhood": "Adams Morgan", "rating": 0.0, "reviews": 0, "price": "", "score": 70}, "geometry": {"type": "Point", "coordinates": [-77.042611, 38.923228]}}, {"type": "Feature", "properties": {"id": "ADAM-107", "name": "Bonita Bonita", "address": "1813 Adams Mill Rd NW, Washington, DC, DC, 20009", "category": "Bar", "neighborhood": "Adams Morgan", "rating": 0.0, "reviews": 0, "price": "", "score": 70}, "geometry": {"type": "Point", "coordinates": [-77.04261537641287, 38.92322883060408]}}, {"type": "Feature", "properties": {"id": "ADAM-108", "name": "Washington Hilton Executive Lounge", "address": "1919 Connecticut Ave NW, Washington, DC, DC, 20009", "category": "Restaurant", "neighborhood": "Adams Morgan", "rating": 0.0, "reviews": 0, "price": "", "score": 70}, "geometry": {"type": "Point", "coordinates": [-77.0452347592863, 38.916446756848]}}, {"type": "Feature", "properties": {"id": "ADAM-109", "name": "Tavern 18", "address": "2621 Connecticut Ave NW, Washington, DC, DC, 20008", "category": "Bar", "neighborhood": "Adams Morgan", "rating": 0.0, "reviews": 0, "price": "", "score": 70}, "geometry": {"type": "Point", "coordinates": [-77.05142, 38.92421]}}, {"type": "Feature", "properties": {"id": "ADAM-110", "name": "Salvi Mex Bar & Grill", "address": "1424 Park Rd NW, Washington, DC, DC, 20010", "category": "Bar", "neighborhood": "Adams Morgan", "rating": 0.0, "reviews": 0, "price": "", "score": 70}, "geometry": {"type": "Point", "coordinates": [-77.03369141515263, 38.93048709334555]}}, {"type": "Feature", "properties": {"id": "ADAM-111", "name": "The Sheppard", "address": "3165 Mt Pleasant St NW, Washington, DC, DC, 20010", "category": "Bar", "neighborhood": "Adams Morgan", "rating": 0.0, "reviews": 0, "price": "", "score": 70}, "geometry": {"type": "Point", "coordinates": [-77.03789, 38.93074]}}, {"type": "Feature", "properties": {"id": "ADAM-112", "name": "Mike & Lois's Late Night Grill", "address": "1800 Belmont Rd, Washington, DC, DC, 20002", "category": "Restaurant", "neighborhood": "Adams Morgan", "rating": 3.4, "reviews": 13, "price": "", "score": 70}, "geometry": {"type": "Point", "coordinates": [-77.04215, 38.92045]}}, {"type": "Feature", "properties": {"id": "ADAM-113", "name": "Four Oaks", "address": "1919 Connecticut Ave, Washington, DC, DC, 20009", "category": "Restaurant", "neighborhood": "Adams Morgan", "rating": 3.2, "reviews": 24, "price": "$$", "score": 70}, "geometry": {"type": "Point", "coordinates": [-77.0456865, 38.9165931]}}, {"type": "Feature", "properties": {"id": "ADAM-114", "name": "Popeyes Louisiana Kitchen", "address": "1742 Columbia Rd NW, Washington, DC, DC, 20009", "category": "Restaurant", "neighborhood": "Adams Morgan", "rating": 2.4, "reviews": 39, "price": "$", "score": 70}, "geometry": {"type": "Point", "coordinates": [-77.0404113, 38.9239368]}}, {"type": "Feature", "properties": {"id": "ADAM-115", "name": "Pizza Boli\u2019s", "address": "2455 18th St NW, Washington, DC, DC, 20009", "category": "Restaurant", "neighborhood": "Adams Morgan", "rating": 0.0, "reviews": 0, "price": "", "score": 70}, "geometry": {"type": "Point", "coordinates": [-77.04202029999999, 38.921923729055614]}}, {"type": "Feature", "properties": {"id": "ADAM-116", "name": "Cowboys and Gunslingers", "address": "1800 Belmont Rd Nw, Washington, DC, DC, 20009", "category": "Restaurant", "neighborhood": "Adams Morgan", "rating": 2.0, "reviews": 1, "price": "", "score": 70}, "geometry": {"type": "Point", "coordinates": [-77.04215, 38.92045]}}, {"type": "Feature", "properties": {"id": "ADAM-117", "name": "Chartwell Grill and Lounge", "address": "1914 Connecticut Ave NW, Washington, DC, DC, 20008", "category": "Restaurant", "neighborhood": "Adams Morgan", "rating": 3.4, "reviews": 20, "price": "$$", "score": 70}, "geometry": {"type": "Point", "coordinates": [-77.04696, 38.9163799]}}, {"type": "Feature", "properties": {"id": "ADAM-118", "name": "The Breakfast Cowboy", "address": "1800 Belmont Rd Nw, Washington, DC, DC, 20009", "category": "Restaurant", "neighborhood": "Adams Morgan", "rating": 0.0, "reviews": 0, "price": "", "score": 70}, "geometry": {"type": "Point", "coordinates": [-77.04215, 38.92045]}}, {"type": "Feature", "properties": {"id": "ADAM-119", "name": "Krispy Kreme", "address": "3100 14th St NW, Washington, DC, DC, 20010", "category": "Coffee", "neighborhood": "Adams Morgan", "rating": 2.9, "reviews": 19, "price": "", "score": 70}, "geometry": {"type": "Point", "coordinates": [-77.03323924110543, 38.92955550000052]}}, {"type": "Feature", "properties": {"id": "ADAM-120", "name": "STARBUCKS", "address": "3100 14th St NW, Washington, DC, DC, 20010", "category": "Coffee", "neighborhood": "Adams Morgan", "rating": 1.0, "reviews": 3, "price": "", "score": 70}, "geometry": {"type": "Point", "coordinates": [-77.0336530174862, 38.92963104326939]}}, {"type": "Feature", "properties": {"id": "ADAM-121", "name": "Sabeh Cafe", "address": "1400 Irving St NW, Washington, DC, DC, 20010", "category": "Coffee", "neighborhood": "Adams Morgan", "rating": 0.0, "reviews": 0, "price": "", "score": 70}, "geometry": {"type": "Point", "coordinates": [-77.0333516510421, 38.928523237954856]}}, {"type": "Feature", "properties": {"id": "ADAM-122", "name": "Woodley Market", "address": "2401 Calvert St NW, Washington, DC, DC, 20008", "category": "Coffee", "neighborhood": "Adams Morgan", "rating": 1.7, "reviews": 6, "price": "$$", "score": 70}, "geometry": {"type": "Point", "coordinates": [-77.0530039072037, 38.9252666071697]}}, {"type": "Feature", "properties": {"id": "ADAM-123", "name": "CryBaby Comedy", "address": "2434 18th St NW, Washington, DC, DC, 20009", "category": "Restaurant", "neighborhood": "Adams Morgan", "rating": 0.0, "reviews": 0, "price": "", "score": 70}, "geometry": {"type": "Point", "coordinates": [-77.04256, 38.92151]}}, {"type": "Feature", "properties": {"id": "ADAM-124", "name": "Rails Comedy", "address": "2438 18th St NW, Washington, DC, DC, 20009", "category": "Restaurant", "neighborhood": "Adams Morgan", "rating": 0.0, "reviews": 0, "price": "", "score": 70}, "geometry": {"type": "Point", "coordinates": [-77.0425257351527, 38.9216443113541]}}, {"type": "Feature", "properties": {"id": "ADAM-125", "name": "Swinging Saturday Night with Tony Gudell at Columbia Station", "address": "2325 18th St NW, Washington, DC, DC, 20009", "category": "Nightclub", "neighborhood": "Adams Morgan", "rating": 0.0, "reviews": 0, "price": "", "score": 70}, "geometry": {"type": "Point", "coordinates": [-77.04158, 38.92037]}}, {"type": "Feature", "properties": {"id": "ADAM-126", "name": "Sudamericana DC", "address": "1834 Columbia Rd NW, Washington, DC, DC, 20009", "category": "Nightclub", "neighborhood": "Adams Morgan", "rating": 0.0, "reviews": 0, "price": "", "score": 70}, "geometry": {"type": "Point", "coordinates": [-77.04312, 38.92172]}}, {"type": "Feature", "properties": {"id": "ADAM-127", "name": "Zanzibar", "address": "2309 18th St NW, Washington, DC, DC, 20009", "category": "Nightclub", "neighborhood": "Adams Morgan", "rating": 0.0, "reviews": 0, "price": "", "score": 70}, "geometry": {"type": "Point", "coordinates": [-77.0414918, 38.92001081510577]}}, {"type": "Feature", "properties": {"id": "ADAM-128", "name": "Dar Constitution Hall Ticket Information", "address": "18th & C Sts, Washington, DC, DC, 20001", "category": "Nightclub", "neighborhood": "Adams Morgan", "rating": 0.0, "reviews": 0, "price": "", "score": 70}, "geometry": {"type": "Point", "coordinates": [-77.0417417164132, 38.8935323675696]}}, {"type": "Feature", "properties": {"id": "ADAM-129", "name": "Otis Enterprises", "address": "2003 18th St NW, Washington, DC, DC, 20009", "category": "Nightclub", "neighborhood": "Adams Morgan", "rating": 0.0, "reviews": 0, "price": "", "score": 70}, "geometry": {"type": "Point", "coordinates": [-77.0413818359375, 38.917293548584]}}, {"type": "Feature", "properties": {"id": "BROOK-001", "name": "Menomale", "address": "2711 12th St NE, Washington, DC, DC, 20018", "category": "Bar", "neighborhood": "Brookland", "rating": 4.2, "reviews": 629, "price": "$$", "score": 90}, "geometry": {"type": "Point", "coordinates": [-76.990149, 38.924859]}}, {"type": "Feature", "properties": {"id": "BROOK-002", "name": "Salumeria 2703", "address": "2703 12th St NE, Washington, DC, DC, 20018", "category": "Restaurant", "neighborhood": "Brookland", "rating": 4.5, "reviews": 64, "price": "$$", "score": 88}, "geometry": {"type": "Point", "coordinates": [-76.990129, 38.924626]}}, {"type": "Feature", "properties": {"id": "BROOK-003", "name": "Right Proper Brewing", "address": "920 Girard St NE, Washington, DC, DC, 20017", "category": "Brewery", "neighborhood": "Brookland", "rating": 4.5, "reviews": 74, "price": "$", "score": 88}, "geometry": {"type": "Point", "coordinates": [-76.993071, 38.926755]}}, {"type": "Feature", "properties": {"id": "BROOK-004", "name": "Primrose", "address": "3000 12th St NE, Washington, DC, DC, 20017", "category": "Bar", "neighborhood": "Brookland", "rating": 4.0, "reviews": 288, "price": "$$", "score": 87}, "geometry": {"type": "Point", "coordinates": [-76.99088, 38.92775]}}, {"type": "Feature", "properties": {"id": "BROOK-005", "name": "Masala Story", "address": "3301 12th St NE, Washington, DC, DC, 20017", "category": "Restaurant", "neighborhood": "Brookland", "rating": 4.4, "reviews": 372, "price": "$$", "score": 87}, "geometry": {"type": "Point", "coordinates": [-76.9906646758318, 38.9307851072378]}}, {"type": "Feature", "properties": {"id": "BROOK-006", "name": "City Kabob and Curry House - Washington", "address": "204 Michigan Ave NE, Washington, DC, DC, 20017", "category": "Restaurant", "neighborhood": "Brookland", "rating": 4.3, "reviews": 237, "price": "$$", "score": 87}, "geometry": {"type": "Point", "coordinates": [-77.00428, 38.92969]}}, {"type": "Feature", "properties": {"id": "BROOK-007", "name": "The Harp", "address": "3126 12th St NE, Washington, DC, DC, 20017", "category": "Restaurant", "neighborhood": "Brookland", "rating": 4.6, "reviews": 15, "price": "", "score": 85}, "geometry": {"type": "Point", "coordinates": [-76.99102649999999, 38.92943429917149]}}, {"type": "Feature", "properties": {"id": "BROOK-008", "name": "Murphy's Grill", "address": "620 Michigan Ave NE, Washington, DC, DC, 20064", "category": "Restaurant", "neighborhood": "Brookland", "rating": 4.6, "reviews": 7, "price": "", "score": 85}, "geometry": {"type": "Point", "coordinates": [-76.998456, 38.935492]}}, {"type": "Feature", "properties": {"id": "BROOK-009", "name": "The Dew Drop Inn", "address": "2801 8th St NE, Washington, DC, DC, 20017", "category": "Bar", "neighborhood": "Brookland", "rating": 4.2, "reviews": 131, "price": "$$", "score": 85}, "geometry": {"type": "Point", "coordinates": [-76.99471, 38.92598]}}, {"type": "Feature", "properties": {"id": "BROOK-010", "name": "The Public Option", "address": "1601 Rhode Island Ave NE, Washington, DC, DC, 20018", "category": "Brewery", "neighborhood": "Brookland", "rating": 4.7, "reviews": 46, "price": "$$", "score": 85}, "geometry": {"type": "Point", "coordinates": [-76.98165, 38.9260499]}}, {"type": "Feature", "properties": {"id": "BROOK-011", "name": "Busboys and Poets", "address": "625 Monroe St NE, Washington, DC, DC, 20017", "category": "Restaurant", "neighborhood": "Brookland", "rating": 3.9, "reviews": 859, "price": "$$", "score": 85}, "geometry": {"type": "Point", "coordinates": [-76.997107, 38.931965]}}, {"type": "Feature", "properties": {"id": "BROOK-012", "name": "Murry & Paul's Restaurant", "address": "3513 12th St NE, Washington, DC, DC, 20017", "category": "Restaurant", "neighborhood": "Brookland", "rating": 4.3, "reviews": 188, "price": "$", "score": 85}, "geometry": {"type": "Point", "coordinates": [-76.9907455444336, 38.9329719543457]}}, {"type": "Feature", "properties": {"id": "BROOK-013", "name": "Krystal Tex-Mex", "address": "3629 12th St NE, Washington, DC, DC, 20017", "category": "Restaurant", "neighborhood": "Brookland", "rating": 5.0, "reviews": 9, "price": "", "score": 85}, "geometry": {"type": "Point", "coordinates": [-76.990946, 38.934334]}}, {"type": "Feature", "properties": {"id": "BROOK-014", "name": "Just AJ's Veenies", "address": "Washington, DC, DC, 20017", "category": "Restaurant", "neighborhood": "Brookland", "rating": 4.6, "reviews": 15, "price": "", "score": 85}, "geometry": {"type": "Point", "coordinates": [-76.9902276, 38.9396261]}}, {"type": "Feature", "properties": {"id": "BROOK-015", "name": "Lazy Bones Pizza", "address": "2801 8th St NE, Washington, DC, DC, 20017", "category": "Restaurant", "neighborhood": "Brookland", "rating": 4.8, "reviews": 5, "price": "", "score": 85}, "geometry": {"type": "Point", "coordinates": [-76.9947303, 38.92599523717932]}}, {"type": "Feature", "properties": {"id": "BROOK-016", "name": "Jerry Chan's", "address": "1350 Brentwood Rd NE, Washington, DC, DC, 20018", "category": "Restaurant", "neighborhood": "Brookland", "rating": 4.5, "reviews": 11, "price": "", "score": 85}, "geometry": {"type": "Point", "coordinates": [-76.9862350076437, 38.9247617125511]}}, {"type": "Feature", "properties": {"id": "BROOK-017", "name": "Tae-Gu Kimchi", "address": "2800 10th St NE, Washington, DC, DC, 20017", "category": "Restaurant", "neighborhood": "Brookland", "rating": 5.0, "reviews": 2, "price": "", "score": 85}, "geometry": {"type": "Point", "coordinates": [-76.9926041739509, 38.92584993822838]}}, {"type": "Feature", "properties": {"id": "BROOK-018", "name": "Spicy Water African Grill", "address": "1325 Rhode Island Ave NE, Washington, DC, DC, 20018", "category": "Restaurant", "neighborhood": "Brookland", "rating": 4.5, "reviews": 16, "price": "", "score": 85}, "geometry": {"type": "Point", "coordinates": [-76.98631377856628, 38.92374339977047]}}, {"type": "Feature", "properties": {"id": "BROOK-019", "name": "Taco Dirty To Me", "address": "2800 10th St NE, Washington, DC, DC, 20017", "category": "Restaurant", "neighborhood": "Brookland", "rating": 5.0, "reviews": 1, "price": "", "score": 85}, "geometry": {"type": "Point", "coordinates": [-76.99271327397247, 38.9258284500541]}}, {"type": "Feature", "properties": {"id": "BROOK-020", "name": "Magandia", "address": "703 Edgewood St NE, Washington, DC, DC, 20017", "category": "Bakery", "neighborhood": "Brookland", "rating": 4.5, "reviews": 2, "price": "", "score": 85}, "geometry": {"type": "Point", "coordinates": [-76.9958522, 38.92507574076145]}}, {"type": "Feature", "properties": {"id": "BROOK-021", "name": "Big Moe's Catering", "address": "2800 10th St NE, Washington, DC, DC, 20017", "category": "Restaurant", "neighborhood": "Brookland", "rating": 5.0, "reviews": 1, "price": "", "score": 85}, "geometry": {"type": "Point", "coordinates": [-76.99276689999999, 38.9258183]}}, {"type": "Feature", "properties": {"id": "BROOK-022", "name": "Bento Konbini", "address": "2800 10th St NE, Washington, DC, DC, 20017", "category": "Restaurant", "neighborhood": "Brookland", "rating": 5.0, "reviews": 1, "price": "", "score": 85}, "geometry": {"type": "Point", "coordinates": [-76.99274, 38.92584]}}, {"type": "Feature", "properties": {"id": "BROOK-023", "name": "TruVegan", "address": "703 Edgewood St NE, Washington, DC, DC, 20017", "category": "Restaurant", "neighborhood": "Brookland", "rating": 5.0, "reviews": 1, "price": "", "score": 85}, "geometry": {"type": "Point", "coordinates": [-76.9958522, 38.92507276033923]}}, {"type": "Feature", "properties": {"id": "BROOK-024", "name": "Mo Than A Pizza", "address": "703 Edgewood St NE, Washington, DC, DC, 20017", "category": "Restaurant", "neighborhood": "Brookland", "rating": 5.0, "reviews": 1, "price": "", "score": 85}, "geometry": {"type": "Point", "coordinates": [-76.995832, 38.925064]}}, {"type": "Feature", "properties": {"id": "BROOK-025", "name": "Cool Coffee", "address": "3901 12th St NE, Washington, DC, DC, 20017", "category": "Coffee", "neighborhood": "Brookland", "rating": 4.8, "reviews": 31, "price": "", "score": 85}, "geometry": {"type": "Point", "coordinates": [-76.99038404971361, 38.93740867045006]}}, {"type": "Feature", "properties": {"id": "BROOK-026", "name": "Sweetdele's Sweet Treats", "address": "2800 10th St NE, Washington, DC, DC, 20017", "category": "Bakery", "neighborhood": "Brookland", "rating": 5.0, "reviews": 1, "price": "$$", "score": 85}, "geometry": {"type": "Point", "coordinates": [-76.992753, 38.925821]}}, {"type": "Feature", "properties": {"id": "BROOK-027", "name": "S&G Seafood House", "address": "2721 7th St NE, Washington, DC, DC, 20017", "category": "Restaurant", "neighborhood": "Brookland", "rating": 4.4, "reviews": 56, "price": "$", "score": 83}, "geometry": {"type": "Point", "coordinates": [-76.99596, 38.92533]}}, {"type": "Feature", "properties": {"id": "BROOK-028", "name": "Starbucks", "address": "655 Michigan Ave NE, Washington, DC, DC, 20017", "category": "Coffee", "neighborhood": "Brookland", "rating": 4.4, "reviews": 77, "price": "$$", "score": 83}, "geometry": {"type": "Point", "coordinates": [-76.99716515275264, 38.93253735977925]}}, {"type": "Feature", "properties": {"id": "BROOK-029", "name": "&pizza", "address": "666 Monroe St NE, Washington, DC, DC, 20017", "category": "Restaurant", "neighborhood": "Brookland", "rating": 3.8, "reviews": 235, "price": "$", "score": 82}, "geometry": {"type": "Point", "coordinates": [-76.996696293354, 38.9325820873321]}}, {"type": "Feature", "properties": {"id": "BROOK-030", "name": "Brookland Grill", "address": "3528 12th St NE, Washington, DC, DC, 20017", "category": "Restaurant", "neighborhood": "Brookland", "rating": 3.8, "reviews": 103, "price": "$", "score": 80}, "geometry": {"type": "Point", "coordinates": [-76.9912567138672, 38.9332847595215]}}, {"type": "Feature", "properties": {"id": "BROOK-031", "name": "WingLand & Pizza", "address": "3502 12th St NE, Washington, DC, DC, 20017", "category": "Restaurant", "neighborhood": "Brookland", "rating": 4.4, "reviews": 12, "price": "", "score": 80}, "geometry": {"type": "Point", "coordinates": [-76.9911258022399, 38.9327492550315]}}, {"type": "Feature", "properties": {"id": "BROOK-032", "name": "Tropical Smoothie Cafe Monroe Street Market - Brookland", "address": "716 Monroe St NE, Washington, DC, DC, 20017", "category": "Restaurant", "neighborhood": "Brookland", "rating": 4.2, "reviews": 6, "price": "", "score": 80}, "geometry": {"type": "Point", "coordinates": [-76.994877, 38.932877]}}, {"type": "Feature", "properties": {"id": "BROOK-033", "name": "Today's Pizza", "address": "3928 12th St NE, Washington, DC, DC, 20017", "category": "Restaurant", "neighborhood": "Brookland", "rating": 3.6, "reviews": 138, "price": "$", "score": 80}, "geometry": {"type": "Point", "coordinates": [-76.99063, 38.93802]}}, {"type": "Feature", "properties": {"id": "BROOK-034", "name": "Trini Vybez By Kalu's Seasoning Blends And Catering", "address": "2800 10th St NE, Washington, DC, DC, 20017", "category": "Restaurant", "neighborhood": "Brookland", "rating": 4.3, "reviews": 33, "price": "", "score": 80}, "geometry": {"type": "Point", "coordinates": [-76.99270642541656, 38.92584529443881]}}, {"type": "Feature", "properties": {"id": "BROOK-035", "name": "Grassfed Griddle", "address": "670 Rhode Island Ave NE, Washington, DC, DC, 20002", "category": "Coffee", "neighborhood": "Brookland", "rating": 4.3, "reviews": 4, "price": "", "score": 80}, "geometry": {"type": "Point", "coordinates": [-76.996607, 38.922073]}}, {"type": "Feature", "properties": {"id": "BROOK-036", "name": "Mesisam The Ethiopian Eatery", "address": "2800 10st NE, Washington, DC, DC, 20017", "category": "Restaurant", "neighborhood": "Brookland", "rating": 4.2, "reviews": 5, "price": "", "score": 80}, "geometry": {"type": "Point", "coordinates": [-76.99274, 38.92584]}}, {"type": "Feature", "properties": {"id": "BROOK-037", "name": "City-State Brewing", "address": "705 Edgewood St NE, Washington, DC, DC, 20017", "category": "Brewery", "neighborhood": "Brookland", "rating": 4.0, "reviews": 40, "price": "", "score": 80}, "geometry": {"type": "Point", "coordinates": [-76.99604, 38.923438]}}, {"type": "Feature", "properties": {"id": "BROOK-038", "name": "San Antonio Bar & Grill", "address": "3908 12th St NE, Washington, DC, DC, 20017", "category": "Restaurant", "neighborhood": "Brookland", "rating": 3.1, "reviews": 273, "price": "$$", "score": 77}, "geometry": {"type": "Point", "coordinates": [-76.9908065795898, 38.9376335144043]}}, {"type": "Feature", "properties": {"id": "BROOK-039", "name": "Otis", "address": "3625 12th St NE, Washington, DC, DC, 20017", "category": "Bar", "neighborhood": "Brookland", "rating": 3.9, "reviews": 16, "price": "", "score": 75}, "geometry": {"type": "Point", "coordinates": [-76.990971, 38.93430636643084]}}, {"type": "Feature", "properties": {"id": "BROOK-040", "name": "Taqueria Habanero", "address": "670 Rhode Island Ave NE, Washington, DC, DC, 20002", "category": "Restaurant", "neighborhood": "Brookland", "rating": 3.8, "reviews": 35, "price": "", "score": 75}, "geometry": {"type": "Point", "coordinates": [-76.99672, 38.92228]}}, {"type": "Feature", "properties": {"id": "BROOK-041", "name": "The Kitchen Jerk", "address": "703 Edgewood St NE, Washington, DC, DC, 20017", "category": "Restaurant", "neighborhood": "Brookland", "rating": 3.9, "reviews": 12, "price": "", "score": 75}, "geometry": {"type": "Point", "coordinates": [-76.9958522, 38.9250602]}}, {"type": "Feature", "properties": {"id": "BROOK-042", "name": "Blowfish Poke & Grill | Hawaiian Restaurant | Rhode Island DC", "address": "670 Rhode Island Ave NE, Washington, DC, DC, 20002", "category": "Restaurant", "neighborhood": "Brookland", "rating": 3.6, "reviews": 30, "price": "$$", "score": 75}, "geometry": {"type": "Point", "coordinates": [-76.99672, 38.92228]}}, {"type": "Feature", "properties": {"id": "BROOK-043", "name": "Block Sushi", "address": "2800 10th St NE, Washington, DC, DC, 20017", "category": "Restaurant", "neighborhood": "Brookland", "rating": 3.6, "reviews": 10, "price": "", "score": 75}, "geometry": {"type": "Point", "coordinates": [-76.99276, 38.92581]}}, {"type": "Feature", "properties": {"id": "BROOK-044", "name": "Bold Dumpling", "address": "670 Rhode Island Ave NE, Washington, DC, DC, 20002", "category": "Restaurant", "neighborhood": "Brookland", "rating": 3.8, "reviews": 19, "price": "", "score": 75}, "geometry": {"type": "Point", "coordinates": [-76.996607, 38.922073]}}, {"type": "Feature", "properties": {"id": "BROOK-045", "name": "Starbucks", "address": "620 Michigan Ave NE, Washington, DC, DC, 20064", "category": "Coffee", "neighborhood": "Brookland", "rating": 3.8, "reviews": 8, "price": "$$", "score": 75}, "geometry": {"type": "Point", "coordinates": [-76.99889229869041, 38.9347503844114]}}, {"type": "Feature", "properties": {"id": "BROOK-046", "name": "Captain Cookie and the Milk Man", "address": "2800 10th St. NE., Washington, DC, DC, 20017", "category": "Bakery", "neighborhood": "Brookland", "rating": 3.8, "reviews": 36, "price": "", "score": 75}, "geometry": {"type": "Point", "coordinates": [-76.99274, 38.92584]}}, {"type": "Feature", "properties": {"id": "BROOK-047", "name": "Potbelly", "address": "655 Michigan Ave NE, Washington, DC, DC, 20017", "category": "Restaurant", "neighborhood": "Brookland", "rating": 2.9, "reviews": 50, "price": "$", "score": 73}, "geometry": {"type": "Point", "coordinates": [-76.99716, 38.93254]}}, {"type": "Feature", "properties": {"id": "BROOK-048", "name": "Pizza Boli's", "address": "3738 10th St NE, Washington, DC, DC, 20017", "category": "Restaurant", "neighborhood": "Brookland", "rating": 2.4, "reviews": 73, "price": "$", "score": 73}, "geometry": {"type": "Point", "coordinates": [-76.99383, 38.936546087925414]}}, {"type": "Feature", "properties": {"id": "BROOK-049", "name": "Chipotle Mexican Grill", "address": "625 Monroe St NE, Washington, DC, DC, 20017", "category": "Restaurant", "neighborhood": "Brookland", "rating": 1.7, "reviews": 84, "price": "$", "score": 73}, "geometry": {"type": "Point", "coordinates": [-76.99705103932646, 38.931966683382306]}}, {"type": "Feature", "properties": {"id": "BROOK-050", "name": "Wah Mee Restaurant", "address": "1604 Rhode Island Ave NE, Washington, DC, DC, 20018", "category": "Restaurant", "neighborhood": "Brookland", "rating": 3.3, "reviews": 30, "price": "$$$", "score": 73}, "geometry": {"type": "Point", "coordinates": [-76.98189, 38.9266099]}}, {"type": "Feature", "properties": {"id": "BROOK-051", "name": "Trinity Grill & Social Marketplace", "address": "200 Michigan Ave NE, Washington, DC, DC, 20017", "category": "Bar", "neighborhood": "Brookland", "rating": 3.1, "reviews": 15, "price": "", "score": 70}, "geometry": {"type": "Point", "coordinates": [-77.00298332003196, 38.93016459871301]}}, {"type": "Feature", "properties": {"id": "BROOK-052", "name": "Reba's Funnel Cakes", "address": "3401 12th St NE, Washington, DC, DC, 20017", "category": "Restaurant", "neighborhood": "Brookland", "rating": 3.4, "reviews": 33, "price": "$", "score": 70}, "geometry": {"type": "Point", "coordinates": [-76.9905426, 38.9318537905576]}}, {"type": "Feature", "properties": {"id": "BROOK-053", "name": "Chick-fil-A", "address": "620 Michigan Ave NE, Washington, DC, DC, 20064", "category": "Restaurant", "neighborhood": "Brookland", "rating": 3.3, "reviews": 15, "price": "$", "score": 70}, "geometry": {"type": "Point", "coordinates": [-76.99810901036133, 38.93535698734805]}}, {"type": "Feature", "properties": {"id": "BROOK-054", "name": "Nash & Smashed", "address": "655 Michigan Ave NE, Washington, DC, DC, 20017", "category": "Restaurant", "neighborhood": "Brookland", "rating": 0.0, "reviews": 0, "price": "", "score": 70}, "geometry": {"type": "Point", "coordinates": [-76.99715, 38.93257]}}, {"type": "Feature", "properties": {"id": "BROOK-055", "name": "Law School Cafe", "address": "620 Michigan Ave NE, Washington, DC, DC, 20064", "category": "Cafe", "neighborhood": "Brookland", "rating": 0.0, "reviews": 0, "price": "", "score": 70}, "geometry": {"type": "Point", "coordinates": [-76.9964800402522, 38.9360147404548]}}, {"type": "Feature", "properties": {"id": "BROOK-056", "name": "Ledo Pizza", "address": "1201 Franklin St NE, Washington, DC, DC, 20018", "category": "Restaurant", "neighborhood": "Brookland", "rating": 3.4, "reviews": 13, "price": "", "score": 70}, "geometry": {"type": "Point", "coordinates": [-76.99001403376, 38.925156]}}, {"type": "Feature", "properties": {"id": "BROOK-057", "name": "Student Restaurant", "address": "620 Michigan Ave NE, Washington, DC, DC, 20017", "category": "Cafe", "neighborhood": "Brookland", "rating": 1.0, "reviews": 2, "price": "", "score": 70}, "geometry": {"type": "Point", "coordinates": [-76.998645, 38.935415]}}, {"type": "Feature", "properties": {"id": "BROOK-058", "name": "Subway", "address": "3504 12th St NE, Washington, DC, DC, 20017", "category": "Restaurant", "neighborhood": "Brookland", "rating": 2.0, "reviews": 13, "price": "$", "score": 70}, "geometry": {"type": "Point", "coordinates": [-76.9911268, 38.9327708]}}, {"type": "Feature", "properties": {"id": "BROOK-059", "name": "Youngs Chicken Shack", "address": "1354 Brentwood Rd NE, Washington, DC, DC, 20018", "category": "Restaurant", "neighborhood": "Brookland", "rating": 3.3, "reviews": 3, "price": "", "score": 70}, "geometry": {"type": "Point", "coordinates": [-76.986091, 38.925024]}}, {"type": "Feature", "properties": {"id": "BROOK-060", "name": "The Pryz", "address": "620 Michigan Ave NE, Washington, DC, DC, 20064", "category": "Cafe", "neighborhood": "Brookland", "rating": 3.0, "reviews": 4, "price": "$$", "score": 70}, "geometry": {"type": "Point", "coordinates": [-76.998694, 38.936887]}}, {"type": "Feature", "properties": {"id": "BROOK-061", "name": "Joe Mini Supermarket", "address": "3527 12th St NE, Washington, DC, DC, 20017", "category": "Restaurant", "neighborhood": "Brookland", "rating": 0.0, "reviews": 0, "price": "", "score": 70}, "geometry": {"type": "Point", "coordinates": [-76.9907760620117, 38.9333992004395]}}, {"type": "Feature", "properties": {"id": "BROOK-062", "name": "Adriana Carry Out", "address": "3623 12th St NE, Washington, DC, DC, 20017", "category": "Restaurant", "neighborhood": "Brookland", "rating": 0.0, "reviews": 0, "price": "", "score": 70}, "geometry": {"type": "Point", "coordinates": [-76.9909333, 38.9339771]}}, {"type": "Feature", "properties": {"id": "BROOK-063", "name": "MRYANGS 100% Vegan Chinese", "address": "703 Edgewood St NE, Washington, DC, DC, 20017", "category": "Restaurant", "neighborhood": "Brookland", "rating": 3.0, "reviews": 2, "price": "", "score": 70}, "geometry": {"type": "Point", "coordinates": [-76.995826, 38.925046]}},