{
  "type": "FeatureCollection",
  "features": [
    {
      "type": "Feature",
      "properties": { "name": "D1 - Connecticut Ave", "type": "pod", "neighborhood": "Dupont Circle", "venues": 95, "avgScore": 76 },
      "geometry": { "type": "Polygon", "coordinates": [[[-77.0455, 38.9065], [-77.0455, 38.9150], [-77.0410, 38.9150], [-77.0410, 38.9065], [-77.0455, 38.9065]]] }
    },
    {
      "type": "Feature",
      "properties": { "name": "D2 - 17th St Strip", "type": "pod", "neighborhood": "Dupont Circle", "venues": 75, "avgScore": 74 },
      "geometry": { "type": "Polygon", "coordinates": [[[-77.0430, 38.9085], [-77.0430, 38.9225], [-77.0370, 38.9225], [-77.0370, 38.9085], [-77.0430, 38.9085]]] }
    },
    {
      "type": "Feature",
      "properties": { "name": "D3 - Dupont Ring", "type": "pod", "neighborhood": "Dupont Circle", "venues": 70, "avgScore": 71 },
      "geometry": { "type": "Polygon", "coordinates": [[[-77.0490, 38.9070], [-77.0490, 38.9120], [-77.0440, 38.9120], [-77.0440, 38.9070], [-77.0490, 38.9070]]] }
    },
    {
      "type": "Feature",
      "properties": { "name": "D4 - P St / 20th", "type": "pod", "neighborhood": "Dupont Circle", "venues": 60, "avgScore": 68 },
      "geometry": { "type": "Polygon", "coordinates": [[[-77.0510, 38.9030], [-77.0510, 38.9100], [-77.0460, 38.9100], [-77.0460, 38.9030], [-77.0510, 38.9030]]] }
    },
    {
      "type": "Feature",
      "properties": { "name": "U1 - 14th St Main", "type": "pod", "neighborhood": "14th St + U St", "venues": 110, "avgScore": 78 },
      "geometry": { "type": "Polygon", "coordinates": [[[-77.0340, 38.9080], [-77.0340, 38.9190], [-77.0300, 38.9190], [-77.0300, 38.9080], [-77.0340, 38.9080]]] }
    },
    {
      "type": "Feature",
      "properties": { "name": "U2 - U St Corridor", "type": "pod", "neighborhood": "14th St + U St", "venues": 85, "avgScore": 75 },
      "geometry": { "type": "Polygon", "coordinates": [[[-77.0430, 38.9160], [-77.0430, 38.9190], [-77.0180, 38.9190], [-77.0180, 38.9160], [-77.0430, 38.9160]]] }
    },
    {
      "type": "Feature",
      "properties": { "name": "U3 - Shaw / 9th St", "type": "pod", "neighborhood": "14th St + U St", "venues": 60, "avgScore": 70 },
      "geometry": { "type": "Polygon", "coordinates": [[[-77.0280, 38.9000], [-77.0280, 38.9170], [-77.0180, 38.9170], [-77.0180, 38.9000], [-77.0280, 38.9000]]] }
    },
    {
      "type": "Feature",
      "properties": { "name": "U4 - V/W / Columbia Hts", "type": "pod", "neighborhood": "14th St + U St", "venues": 45, "avgScore": 68 },
      "geometry": { "type": "Polygon", "coordinates": [[[-77.0380, 38.9200], [-77.0380, 38.9450], [-77.0200, 38.9450], [-77.0200, 38.9200], [-77.0380, 38.9200]]] }
    },
    {"type":"Feature","properties":{"id":"D1-001","name":"Daily Provisions","address":"1723 Connecticut Ave NW","category":"Cafe","pod":"D1","indoor":5,"outdoor":5,"score":92,"corner":true},"geometry":{"type":"Point","coordinates":[-77.0440,38.9125]}},
    {"type":"Feature","properties":{"id":"D1-002","name":"Kramers","address":"1517 Connecticut Ave NW","category":"Books/Cafe","pod":"D1","indoor":5,"outdoor":4,"score":90,"corner":false},"geometry":{"type":"Point","coordinates":[-77.0434,38.9102]}},
    {"type":"Feature","properties":{"id":"D1-003","name":"Circa at Dupont","address":"1601 Connecticut Ave NW","category":"Restaurant","pod":"D1","indoor":5,"outdoor":5,"score":90,"corner":true},"geometry":{"type":"Point","coordinates":[-77.0435,38.9110]}},
    {"type":"Feature","properties":{"id":"D1-004","name":"Dolcezza","address":"1704 Connecticut Ave NW","category":"Coffee/Gelato","pod":"D1","indoor":4,"outdoor":5,"score":88,"corner":false},"geometry":{"type":"Point","coordinates":[-77.0440,38.9125]}},
    {"type":"Feature","properties":{"id":"D1-005","name":"Teaism","address":"2009 R St NW","category":"Tea House","pod":"D1","indoor":4,"outdoor":5,"score":86,"corner":true},"geometry":{"type":"Point","coordinates":[-77.0456,38.9127]}},
    {"type":"Feature","properties":{"id":"D1-006","name":"Bistrot Du Coin","address":"1738 Connecticut Ave NW","category":"Restaurant","pod":"D1","indoor":4,"outdoor":5,"score":86,"corner":false},"geometry":{"type":"Point","coordinates":[-77.0443,38.9130]}},
    {"type":"Feature","properties":{"id":"D1-007","name":"Tabard Inn","address":"1739 N St NW","category":"Hotel/Restaurant","pod":"D1","indoor":5,"outdoor":4,"score":85,"corner":false},"geometry":{"type":"Point","coordinates":[-77.0432,38.9085]}},
    {"type":"Feature","properties":{"id":"D1-020","name":"Tatte Bakery","address":"1612 Connecticut Ave NW","category":"Bakery/Cafe","pod":"D1","indoor":4,"outdoor":4,"score":82,"corner":false},"geometry":{"type":"Point","coordinates":[-77.0437,38.9114]}},
    {"type":"Feature","properties":{"id":"D1-031","name":"Compass Coffee Dupont","address":"1776 Connecticut Ave NW","category":"Coffee","pod":"D1","indoor":4,"outdoor":4,"score":84,"corner":false},"geometry":{"type":"Point","coordinates":[-77.0445,38.9135]}},
    {"type":"Feature","properties":{"id":"D1-048","name":"Bluestone Lane","address":"1609 Connecticut Ave NW","category":"Coffee","pod":"D1","indoor":4,"outdoor":4,"score":82,"corner":false},"geometry":{"type":"Point","coordinates":[-77.0436,38.9113]}},
    {"type":"Feature","properties":{"id":"D1-060","name":"Hilton Dupont","address":"1919 Connecticut Ave NW","category":"Hotel","pod":"D1","indoor":5,"outdoor":3,"score":82,"corner":false},"geometry":{"type":"Point","coordinates":[-77.0455,38.9155]}},
    {"type":"Feature","properties":{"id":"D1-065","name":"Hanks Oyster Bar","address":"1624 Q St NW","category":"Restaurant","pod":"D1","indoor":4,"outdoor":5,"score":84,"corner":false},"geometry":{"type":"Point","coordinates":[-77.0380,38.9105]}},
    {"type":"Feature","properties":{"id":"D1-075","name":"Iron Gate","address":"1734 N St NW","category":"Restaurant","pod":"D1","indoor":5,"outdoor":5,"score":88,"corner":false},"geometry":{"type":"Point","coordinates":[-77.0430,38.9083]}},
    {"type":"Feature","properties":{"id":"D1-083","name":"Local 16","address":"1602 U St NW","category":"Bar","pod":"D1","indoor":4,"outdoor":5,"score":84,"corner":false},"geometry":{"type":"Point","coordinates":[-77.0375,38.9168]}},
    {"type":"Feature","properties":{"id":"D2-001","name":"Fireplace","address":"2161 P St NW","category":"Bar","pod":"D2","indoor":4,"outdoor":5,"score":88,"corner":true},"geometry":{"type":"Point","coordinates":[-77.0470,38.9095]}},
    {"type":"Feature","properties":{"id":"D2-002","name":"Larrys Lounge","address":"1840 18th St NW","category":"Bar","pod":"D2","indoor":4,"outdoor":5,"score":88,"corner":true},"geometry":{"type":"Point","coordinates":[-77.0420,38.9135]}},
    {"type":"Feature","properties":{"id":"D2-004","name":"Dukes Grocery","address":"1513 17th St NW","category":"Restaurant","pod":"D2","indoor":4,"outdoor":5,"score":85,"corner":false},"geometry":{"type":"Point","coordinates":[-77.0385,38.9114]}},
    {"type":"Feature","properties":{"id":"D2-008","name":"Lauriol Plaza","address":"1835 18th St NW","category":"Restaurant","pod":"D2","indoor":5,"outdoor":5,"score":86,"corner":false},"geometry":{"type":"Point","coordinates":[-77.0419,38.9134]}},
    {"type":"Feature","properties":{"id":"D2-029","name":"Right Proper","address":"624 T St NW","category":"Brewery","pod":"D2","indoor":5,"outdoor":4,"score":86,"corner":false},"geometry":{"type":"Point","coordinates":[-77.0210,38.9150]}},
    {"type":"Feature","properties":{"id":"D2-035","name":"Roses Luxury","address":"717 8th St SE","category":"Restaurant","pod":"D2","indoor":5,"outdoor":4,"score":88,"corner":false},"geometry":{"type":"Point","coordinates":[-76.9945,38.8790]}},
    {"type":"Feature","properties":{"id":"D2-053","name":"Founding Farmers","address":"1924 Pennsylvania Ave NW","category":"Restaurant","pod":"D2","indoor":5,"outdoor":4,"score":86,"corner":false},"geometry":{"type":"Point","coordinates":[-77.0470,38.9005]}},
    {"type":"Feature","properties":{"id":"D2-054","name":"Farmers Fishers Bakers","address":"3000 K St NW","category":"Restaurant","pod":"D2","indoor":5,"outdoor":5,"score":88,"corner":false},"geometry":{"type":"Point","coordinates":[-77.0615,38.9020]}},
    {"type":"Feature","properties":{"id":"D2-058","name":"Fiola Mare","address":"3100 K St NW","category":"Restaurant","pod":"D2","indoor":5,"outdoor":5,"score":90,"corner":false},"geometry":{"type":"Point","coordinates":[-77.0625,38.9025]}},
    {"type":"Feature","properties":{"id":"D3-001","name":"The Royal Sonesta","address":"2121 P St NW","category":"Hotel","pod":"D3","indoor":5,"outdoor":5,"score":90,"corner":true},"geometry":{"type":"Point","coordinates":[-77.0468,38.9090]}},
    {"type":"Feature","properties":{"id":"D3-002","name":"Le Pain Quotidien","address":"2001 P St NW","category":"Bakery/Cafe","pod":"D3","indoor":4,"outdoor":5,"score":87,"corner":true},"geometry":{"type":"Point","coordinates":[-77.0456,38.9090]}},
    {"type":"Feature","properties":{"id":"D3-003","name":"Emissary","address":"2032 P St NW","category":"Coffee","pod":"D3","indoor":4,"outdoor":4,"score":86,"corner":false},"geometry":{"type":"Point","coordinates":[-77.0462,38.9092]}},
    {"type":"Feature","properties":{"id":"D3-004","name":"The Ven Hotel","address":"2015 Massachusetts Ave NW","category":"Hotel","pod":"D3","indoor":5,"outdoor":4,"score":86,"corner":true},"geometry":{"type":"Point","coordinates":[-77.0460,38.9110]}},
    {"type":"Feature","properties":{"id":"D3-005","name":"Barrys Bootcamp","address":"1345 19th St NW","category":"Fitness","pod":"D3","indoor":5,"outdoor":2,"score":85,"corner":false},"geometry":{"type":"Point","coordinates":[-77.0432,38.9075]}},
    {"type":"Feature","properties":{"id":"D3-042","name":"Jack Rose Dining","address":"2007 18th St NW","category":"Bar","pod":"D3","indoor":5,"outdoor":5,"score":88,"corner":false},"geometry":{"type":"Point","coordinates":[-77.0420,38.9175]}},
    {"type":"Feature","properties":{"id":"D3-063","name":"Columbia Room","address":"124 Blagden Alley NW","category":"Bar","pod":"D3","indoor":5,"outdoor":3,"score":86,"corner":false},"geometry":{"type":"Point","coordinates":[-77.0210,38.9090]}},
    {"type":"Feature","properties":{"id":"D3-066","name":"POV","address":"515 15th St NW","category":"Bar","pod":"D3","indoor":5,"outdoor":5,"score":88,"corner":false},"geometry":{"type":"Point","coordinates":[-77.0340,38.8962]}},
    {"type":"Feature","properties":{"id":"D4-001","name":"Boqueria","address":"1837 M St NW","category":"Restaurant","pod":"D4","indoor":5,"outdoor":5,"score":86,"corner":true},"geometry":{"type":"Point","coordinates":[-77.0422,38.9046]}},
    {"type":"Feature","properties":{"id":"D4-031","name":"Maketto","address":"1351 H St NE","category":"Restaurant","pod":"D4","indoor":5,"outdoor":4,"score":86,"corner":false},"geometry":{"type":"Point","coordinates":[-76.9892,38.9002]}},
    {"type":"Feature","properties":{"id":"D4-034","name":"Atlas Brew Works","address":"2052 West Virginia Ave NE","category":"Brewery","pod":"D4","indoor":5,"outdoor":5,"score":88,"corner":false},"geometry":{"type":"Point","coordinates":[-76.9715,38.9110]}},
    {"type":"Feature","properties":{"id":"D4-036","name":"Bluejacket","address":"300 Tingey St SE","category":"Brewery","pod":"D4","indoor":5,"outdoor":5,"score":90,"corner":false},"geometry":{"type":"Point","coordinates":[-76.9940,38.8760]}},
    {"type":"Feature","properties":{"id":"D4-038","name":"Other Half DC","address":"1401 Okie St NE","category":"Brewery","pod":"D4","indoor":5,"outdoor":5,"score":88,"corner":false},"geometry":{"type":"Point","coordinates":[-76.9765,38.9185]}},
    {"type":"Feature","properties":{"id":"U1-001","name":"Le Diplomate","address":"1601 14th St NW","category":"Restaurant","pod":"U1","indoor":5,"outdoor":5,"score":95,"corner":true},"geometry":{"type":"Point","coordinates":[-77.0320,38.9120]}},
    {"type":"Feature","properties":{"id":"U1-002","name":"Busboys and Poets","address":"2021 14th St NW","category":"Restaurant","pod":"U1","indoor":5,"outdoor":5,"score":94,"corner":true},"geometry":{"type":"Point","coordinates":[-77.0320,38.9182]}},
    {"type":"Feature","properties":{"id":"U1-003","name":"ChurchKey","address":"1337 14th St NW","category":"Brewery/Bar","pod":"U1","indoor":5,"outdoor":5,"score":93,"corner":true},"geometry":{"type":"Point","coordinates":[-77.0320,38.9093]}},
    {"type":"Feature","properties":{"id":"U1-004","name":"Compass Coffee","address":"1924 14th St NW","category":"Coffee","pod":"U1","indoor":4,"outdoor":5,"score":91,"corner":false},"geometry":{"type":"Point","coordinates":[-77.0320,38.9170]}},
    {"type":"Feature","properties":{"id":"U1-005","name":"Aslin Beer Garden","address":"1326 14th St NW","category":"Brewery","pod":"U1","indoor":5,"outdoor":5,"score":90,"corner":false},"geometry":{"type":"Point","coordinates":[-77.0318,38.9090]}},
    {"type":"Feature","properties":{"id":"U1-006","name":"Barcelona Wine Bar","address":"1622 14th St NW","category":"Wine Bar","pod":"U1","indoor":4,"outdoor":5,"score":90,"corner":false},"geometry":{"type":"Point","coordinates":[-77.0320,38.9125]}},
    {"type":"Feature","properties":{"id":"U1-007","name":"Cafe Saint-Ex","address":"1847 14th St NW","category":"Bar","pod":"U1","indoor":4,"outdoor":5,"score":89,"corner":true},"geometry":{"type":"Point","coordinates":[-77.0320,38.9160]}},
    {"type":"Feature","properties":{"id":"U1-008","name":"Slipstream","address":"1333 14th St NW","category":"Coffee","pod":"U1","indoor":4,"outdoor":5,"score":89,"corner":true},"geometry":{"type":"Point","coordinates":[-77.0320,38.9092]}},
    {"type":"Feature","properties":{"id":"U1-009","name":"Garden District","address":"1801 14th St NW","category":"Bar","pod":"U1","indoor":4,"outdoor":5,"score":89,"corner":true},"geometry":{"type":"Point","coordinates":[-77.0320,38.9155]}},
    {"type":"Feature","properties":{"id":"U1-010","name":"Colada Shop","address":"1405 T St NW","category":"Coffee/Bar","pod":"U1","indoor":4,"outdoor":5,"score":88,"corner":true},"geometry":{"type":"Point","coordinates":[-77.0320,38.9145]}},
    {"type":"Feature","properties":{"id":"U1-011","name":"The Gibson","address":"2009 14th St NW","category":"Bar","pod":"U1","indoor":5,"outdoor":2,"score":88,"corner":false},"geometry":{"type":"Point","coordinates":[-77.0320,38.9180]}},
    {"type":"Feature","properties":{"id":"U1-012","name":"Black Cat","address":"1811 14th St NW","category":"Music","pod":"U1","indoor":5,"outdoor":2,"score":88,"corner":true},"geometry":{"type":"Point","coordinates":[-77.0320,38.9158]}},
    {"type":"Feature","properties":{"id":"U1-013","name":"Pearl Dive","address":"1612 14th St NW","category":"Restaurant","pod":"U1","indoor":4,"outdoor":4,"score":88,"corner":false},"geometry":{"type":"Point","coordinates":[-77.0320,38.9122]}},
    {"type":"Feature","properties":{"id":"U1-044","name":"Maydan","address":"1346 Florida Ave NW","category":"Restaurant","pod":"U1","indoor":5,"outdoor":4,"score":90,"corner":false},"geometry":{"type":"Point","coordinates":[-77.0320,38.9175]}},
    {"type":"Feature","properties":{"id":"U1-045","name":"Bad Saint","address":"3226 11th St NW","category":"Restaurant","pod":"U1","indoor":5,"outdoor":2,"score":88,"corner":false},"geometry":{"type":"Point","coordinates":[-77.0270,38.9315]}},
    {"type":"Feature","properties":{"id":"U1-068","name":"Estadio","address":"1520 14th St NW","category":"Restaurant","pod":"U1","indoor":4,"outdoor":4,"score":86,"corner":false},"geometry":{"type":"Point","coordinates":[-77.0320,38.9108]}},
    {"type":"Feature","properties":{"id":"U1-077","name":"Jack Rose","address":"2007 18th St NW","category":"Bar","pod":"U1","indoor":5,"outdoor":5,"score":88,"corner":false},"geometry":{"type":"Point","coordinates":[-77.0420,38.9175]}},
    {"type":"Feature","properties":{"id":"U1-081","name":"Tail Up Goat","address":"1827 Adams Mill Rd NW","category":"Restaurant","pod":"U1","indoor":4,"outdoor":4,"score":86,"corner":false},"geometry":{"type":"Point","coordinates":[-77.0440,38.9220]}},
    {"type":"Feature","properties":{"id":"U2-001","name":"Nellies Sports Bar","address":"900 U St NW","category":"Bar","pod":"U2","indoor":5,"outdoor":5,"score":91,"corner":true},"geometry":{"type":"Point","coordinates":[-77.0255,38.9170]}},
    {"type":"Feature","properties":{"id":"U2-002","name":"9:30 Club","address":"815 V St NW","category":"Music","pod":"U2","indoor":5,"outdoor":2,"score":88,"corner":true},"geometry":{"type":"Point","coordinates":[-77.0245,38.9178]}},
    {"type":"Feature","properties":{"id":"U2-003","name":"El Rey","address":"919 U St NW","category":"Bar","pod":"U2","indoor":4,"outdoor":5,"score":87,"corner":false},"geometry":{"type":"Point","coordinates":[-77.0260,38.9172]}},
    {"type":"Feature","properties":{"id":"U2-004","name":"VIDA Fitness U St","address":"1612 U St NW","category":"Gym","pod":"U2","indoor":5,"outdoor":3,"score":86,"corner":false},"geometry":{"type":"Point","coordinates":[-77.0378,38.9168]}},
    {"type":"Feature","properties":{"id":"U2-010","name":"Dacha","address":"1600 7th St NW","category":"Bar","pod":"U2","indoor":4,"outdoor":5,"score":84,"corner":false},"geometry":{"type":"Point","coordinates":[-77.0210,38.9125]}},
    {"type":"Feature","properties":{"id":"U2-040","name":"Marvin","address":"2007 14th St NW","category":"Bar","pod":"U2","indoor":4,"outdoor":5,"score":84,"corner":false},"geometry":{"type":"Point","coordinates":[-77.0320,38.9180]}},
    {"type":"Feature","properties":{"id":"U2-048","name":"Wunder Garten","address":"1101 1st St NE","category":"Bar","pod":"U2","indoor":4,"outdoor":5,"score":84,"corner":false},"geometry":{"type":"Point","coordinates":[-77.0075,38.9065]}},
    {"type":"Feature","properties":{"id":"U2-049","name":"The Salt Line","address":"79 Potomac Ave SE","category":"Restaurant","pod":"U2","indoor":5,"outdoor":5,"score":88,"corner":false},"geometry":{"type":"Point","coordinates":[-76.9875,38.8755]}},
    {"type":"Feature","properties":{"id":"U2-066","name":"Rasika","address":"633 D St NW","category":"Restaurant","pod":"U2","indoor":5,"outdoor":2,"score":86,"corner":false},"geometry":{"type":"Point","coordinates":[-77.0190,38.8938]}},
    {"type":"Feature","properties":{"id":"U2-067","name":"Zaytinya","address":"701 9th St NW","category":"Restaurant","pod":"U2","indoor":5,"outdoor":4,"score":88,"corner":false},"geometry":{"type":"Point","coordinates":[-77.0235,38.8965]}},
    {"type":"Feature","properties":{"id":"U2-068","name":"Jaleo","address":"480 7th St NW","category":"Restaurant","pod":"U2","indoor":5,"outdoor":4,"score":86,"corner":false},"geometry":{"type":"Point","coordinates":[-77.0215,38.8945]}},
    {"type":"Feature","properties":{"id":"U2-074","name":"Right Proper","address":"624 T St NW","category":"Brewery","pod":"U2","indoor":5,"outdoor":4,"score":86,"corner":false},"geometry":{"type":"Point","coordinates":[-77.0210,38.9150]}},
    {"type":"Feature","properties":{"id":"U2-076","name":"Espita","address":"1250 9th St NW","category":"Restaurant","pod":"U2","indoor":4,"outdoor":4,"score":85,"corner":false},"geometry":{"type":"Point","coordinates":[-77.0240,38.9055]}},
    {"type":"Feature","properties":{"id":"U2-078","name":"All Purpose","address":"1250 9th St NW","category":"Restaurant","pod":"U2","indoor":4,"outdoor":4,"score":86,"corner":false},"geometry":{"type":"Point","coordinates":[-77.0240,38.9055]}},
    {"type":"Feature","properties":{"id":"U3-001","name":"Dacha Beer Garden","address":"1600 7th St NW","category":"Beer Garden","pod":"U3","indoor":4,"outdoor":5,"score":92,"corner":true},"geometry":{"type":"Point","coordinates":[-77.0210,38.9125]}},
    {"type":"Feature","properties":{"id":"U3-002","name":"All Purpose Shaw","address":"1250 9th St NW","category":"Restaurant","pod":"U3","indoor":4,"outdoor":5,"score":86,"corner":false},"geometry":{"type":"Point","coordinates":[-77.0240,38.9055]}},
    {"type":"Feature","properties":{"id":"U3-006","name":"City Tap House","address":"901 9th St NW","category":"Bar","pod":"U3","indoor":5,"outdoor":5,"score":87,"corner":true},"geometry":{"type":"Point","coordinates":[-77.0240,38.9005]}},
    {"type":"Feature","properties":{"id":"U3-007","name":"Right Proper","address":"624 T St NW","category":"Brewery","pod":"U3","indoor":5,"outdoor":4,"score":86,"corner":false},"geometry":{"type":"Point","coordinates":[-77.0210,38.9150]}},
    {"type":"Feature","properties":{"id":"U3-025","name":"The Dabney","address":"122 Blagden Alley","category":"Restaurant","pod":"U3","indoor":5,"outdoor":4,"score":90,"corner":false},"geometry":{"type":"Point","coordinates":[-77.0210,38.9090]}},
    {"type":"Feature","properties":{"id":"U3-026","name":"Columbia Room","address":"124 Blagden Alley","category":"Bar","pod":"U3","indoor":5,"outdoor":3,"score":86,"corner":false},"geometry":{"type":"Point","coordinates":[-77.0210,38.9090]}},
    {"type":"Feature","properties":{"id":"U3-049","name":"Atlas Brew Works","address":"2052 West Virginia Ave NE","category":"Brewery","pod":"U3","indoor":5,"outdoor":5,"score":88,"corner":false},"geometry":{"type":"Point","coordinates":[-76.9715,38.9110]}},
    {"type":"Feature","properties":{"id":"U3-051","name":"Bluejacket","address":"300 Tingey St SE","category":"Brewery","pod":"U3","indoor":5,"outdoor":5,"score":90,"corner":false},"geometry":{"type":"Point","coordinates":[-76.9940,38.8760]}},
    {"type":"Feature","properties":{"id":"U3-053","name":"Other Half DC","address":"1401 Okie St NE","category":"Brewery","pod":"U3","indoor":5,"outdoor":5,"score":88,"corner":false},"geometry":{"type":"Point","coordinates":[-76.9765,38.9185]}},
    {"type":"Feature","properties":{"id":"U4-001","name":"Wonderland Ballroom","address":"1101 Kenyon St NW","category":"Bar","pod":"U4","indoor":4,"outdoor":5,"score":80,"corner":true},"geometry":{"type":"Point","coordinates":[-77.0280,38.9290]}},
    {"type":"Feature","properties":{"id":"U4-003","name":"Vinoteca","address":"1940 11th St NW","category":"Wine Bar","pod":"U4","indoor":4,"outdoor":5,"score":85,"corner":true},"geometry":{"type":"Point","coordinates":[-77.0270,38.9175]}},
    {"type":"Feature","properties":{"id":"U4-006","name":"Bad Saint","address":"3226 11th St NW","category":"Restaurant","pod":"U4","indoor":5,"outdoor":2,"score":88,"corner":false},"geometry":{"type":"Point","coordinates":[-77.0270,38.9315]}},
    {"type":"Feature","properties":{"id":"U4-012","name":"Call Your Mother","address":"3301 Georgia Ave NW","category":"Restaurant","pod":"U4","indoor":4,"outdoor":4,"score":84,"corner":true},"geometry":{"type":"Point","coordinates":[-77.0235,38.9340]}},
    {"type":"Feature","properties":{"id":"U4-045","name":"Jack Rose","address":"2007 18th St NW","category":"Bar","pod":"U4","indoor":5,"outdoor":5,"score":88,"corner":false},"geometry":{"type":"Point","coordinates":[-77.0420,38.9175]}}
  ]
}
