ID,Name,Address,Category,Neighborhood,Rating,Reviews,Price,Score,Lat,Lng,Phone,YelpID
DUP-001,Doi Moi,"1800 14th St NW, Washington, DC, DC, 20009",Bar,Dupont Circle,4.0,1503,$$,95,38.9141018649927,-77.0321429153443,+12027335131,xPlRRI_bixl9GXqNP3aEFg
DUP-002,Founding Farmers DC,"1924 Pennsylvania Ave NW, Washington, DC, DC, 20006",Coffee,Dupont Circle,4.0,18221,$$,95,38.90029,-77.04442,+12028228783,VA8aPObRynlwR1TGzbzraQ
14TH-001,Tryst,"2459 18th St NW, Washington, DC, DC, 20009",Coffee,14th Street Corridor,4.0,1867,$$,95,38.9219703674316,-77.042121887207,+12022325500,j3l4jSU4LV8Op5PSSQ-XWw
GTWN-001,Baked & Wired,"1052 Thomas Jefferson St NW, Washington, DC, DC, 20007",Coffee,Georgetown,4.4,5334,$$,95,38.9039128490789,-77.0602477800762,+12023332500,Es64Je53efmpWh-BXHjguQ
CAPH-001,Bluejacket,"300 Tingey St SE, Washington, DC, DC, 20003",Brewery,Capitol Hill / Barracks Row,3.5,1408,$$,94,38.874952961886,-77.00076755087,+12025244862,JEZ01JzZAkzEQQCcE_xivA
PENN-001,Urban Roast,"916 G St NW, Washington, DC, DC, 20001",Bar,Penn Quarter / Chinatown,3.4,1028,$$,94,38.89800507172392,-77.02491600347251,+17713335051,-BC5nMSlMV8w0p7zWBMnLg
PENN-002,Pitango Gelato & Coffee,"413 7th St NW, Washington, DC, DC, 20004",Coffee,Penn Quarter / Chinatown,4.2,1078,$$,94,38.8950575888157,-77.0218540728092,+12028859607,sMzTAeBwEjchTZbqG2mlQA
DUP-003,Kramers,"1517 Connecticut Ave NW, Washington, DC, DC, 20036",Bar,Dupont Circle,3.6,2149,$$,93,38.910843111222185,-77.04376803282722,+12023871400,56eh2_ZImiSYeZ6qexhnmA
DUP-004,Zorba's Cafe,"1612 20th St NW, Washington, DC, DC, 20009",Coffee,Dupont Circle,3.9,819,$$,93,38.91169,-77.04517,+12023878555,AVihKWsWaQAp0f2DPdXe4Q
HST-001,Maketto,"1351 H Ne St, Washington, DC, DC, 20002",Cafe,H Street NE,4.2,1337,$$$,93,38.89990414059217,-76.98666519999999,+12028389972,xcmJSS6LAGWLWAsVK6LALA
DUP-005,Un Je Ne Sais Quoi,"1361 Connecticut Ave NW, Washington, DC, DC, 20036",Bakery,Dupont Circle,4.5,1120,$$,92,38.9087384,-77.042577,+12027210099,lRH_cZ08TXKnCS5FKP0Qow
DUP-006,Tatte Bakery & Cafe,"1200 New Hampshire Ave NW, Washington, DC, DC, 20036",Coffee,Dupont Circle,4.1,677,$$,92,38.905814,-77.047639,+12029198300,dCXve1mqUIr7oB9DwJm6DA
DUP-007,Dolcezza,"1704 Connecticut Ave NW, Washington, DC, DC, 20009",Coffee,Dupont Circle,4.2,722,$$,92,38.91286949736816,-77.04555414341571,+12022999116,fWwSW-NyZtRva6LLZwWptw
DUP-008,Colada Shop,"1405 T St NW, Washington, DC, DC, 20009",Bar,Dupont Circle,4.0,626,$$,91,38.91573591326277,-77.0323945288129,+12029314947,QrU-5UGZjTQIj420eNZsWw
DUP-009,Slipstream,"1333 14th St NW, Washington, DC, DC, 20005",Bar,Dupont Circle,3.8,621,$$,91,38.90987957664383,-77.03157736231253,+12024502216,UFjbGG5nINRK91IIWZ_Ceg
DUP-010,Teaism Dupont Circle,"2009 R St NW, Washington, DC, DC, 20009",Cafe,Dupont Circle,3.8,806,$$,91,38.9127931770185,-77.045775666903,+12026673827,D_tXYPdRki1jj636wtEWxA
DUP-011,Emissary,"2032 P St NW, Washington, DC, DC, 20036",Coffee,Dupont Circle,4.0,561,$$,91,38.90951,-77.04638,+12026422603,UY9o8MliuSz79wYDZIatjg
DUP-012,Bluestone Lane DC Library,"1100 23rd St NW, Washington, DC, DC, 20037",Coffee,Dupont Circle,3.8,560,$$,91,38.9038876,-77.0504437,+17183746858,gtZBZzFy9jxigKe96DmsVQ
LOG-001,Right Proper Brewing Company,"624 T St NW, Washington, DC, DC, 20001",Brewery,Logan Circle,4.0,785,$$,91,38.9153595,-77.021347,+12026072337,JRI2e5wMq4-HqVt4LRGmnQ
LOG-002,La Colombe,"924 Rear N St NW, Washington, DC, DC, 20001",Coffee,Logan Circle,4.3,562,$$,91,38.90695,-77.02492,+12022894850,rrCYeba9B2HeIOxJ37YvAw
COLH-001,Heat Da Spot,"3213 Georgia Ave NW, Washington, DC, DC, 20010",Coffee,Columbia Heights,4.8,522,$$,91,38.9304254,-77.0232633,+12028364719,KUo-lJo5bU8ToIjGbUB9pg
COLH-002,Call Your Mother Deli - Park View,"3301 Georgia Ave NW, Washington, DC, DC, 20010",Coffee,Columbia Heights,4.2,609,$$,91,38.93138,-77.0233,+12024505307,0-OTVzmRIV1csYwQYuCa8g
PETW-001,Highlands,"4706 14th St NW, Washington, DC, DC, 20011",Coffee,Petworth,4.1,579,$$,91,38.94752,-77.03307,+12028296200,jcpw8JWWBPIvr7f6QvbJDg
HST-002,Sidamo Coffee and Tea,"417 H St NE, Washington, DC, DC, 20002",Coffee,H Street NE,4.3,541,$,91,38.90002,-76.99991,+12025480081,ADF7xgqyzBvUzEnXlZHAOA
HST-003,Ebenezers Coffeehouse,"201 F St NE, Washington, DC, DC, 20002",Coffee,H Street NE,4.1,603,$$,91,38.8971287119908,-77.0032858099355,+12025586900,MXevZNlkpEASkR3G5wDi_Q
HST-004,Olivia Macaron,"405 Morse St NE, Washington, DC, DC, 20002",Coffee,H Street NE,3.9,522,$$,91,38.90763320754142,-76.99978727351687,+12029651000,qP8rYYnA1eIqmy6x7IHNFg
CAPH-002,Peregrine Espresso,"660 Pennsylvania Ave SE, Washington, DC, DC, 20003",Coffee,Capitol Hill / Barracks Row,4.2,540,$$,91,38.88553632545,-76.996396911717,+12026294381,3RpL7kvcWoJi9wsI7muJrg
PENN-003,Teaism Penn Quarter,"400 8th St NW, Washington, DC, DC, 20004",Cafe,Penn Quarter / Chinatown,3.7,911,$$,91,38.8949788631939,-77.0232885337296,+12026386010,0tRQjjT4WfbWJd91to0Peg
PENN-004,Dolcezza,"904 Palmer Aly Nw, Washington, DC, DC, 20001",Coffee,Penn Quarter / Chinatown,4.2,617,$$,91,38.900264,-77.024192,+12027332879,a_rDOhA5ySU5xaf8MbY0JA
DUP-013,Tatte Bakery & Cafe,"1301 Connecticut Ave NW, Washington, DC, DC, 20036",Coffee,Dupont Circle,4.1,459,$$,90,38.90761,-77.04192,+12026291534,s6YlBaSVQ0MIsS6bndRS9g
DUP-014,Bread & Chocolate,"2301 M St NW, Washington, DC, DC, 20037",Coffee,Dupont Circle,3.3,418,$$,90,38.90566,-77.05045,+12028338360,7iAXks1AppAh164h6nseSQ
LOG-003,Compass Coffee,"1535 7th St NW, Washington, DC, DC, 20001",Coffee,Logan Circle,4.2,444,$,90,38.9105988,-77.0215683,+12022517402,4Ry2kj5nVqAsxuFSQx-_GA
14TH-002,The Royal,"501 Florida Ave NW, Washington, DC, DC, 20001",Bar,14th Street Corridor,4.2,429,$$,90,38.9150428771973,-77.0185775756836,+12023327777,UKAagcQSoG8aH0JP8nHcOg
SHAW-001,Big Bear Cafe,"1700 1st St NW, Washington, DC, DC, 20001",Cafe,Shaw,3.4,773,$$,90,38.912676,-77.01225,+12026439222,n8xV9LQi1MxVqbqP5g3nEA
ADAM-001,Rajaji Fine Indian Cuisine,"2603 Connecticut Ave NW, Washington, DC, DC, 20008",Coffee,Adams Morgan,3.8,418,$$,90,38.92394,-77.05127,+12022657344,GOXbp_Vh9ZDsbvG6e3M8Lw
PENN-005,Tatte Bakery and Cafe,"1090 I St NW, Washington, DC, DC, 20001",Coffee,Penn Quarter / Chinatown,4.2,433,$$,90,38.9006499,-77.0267439,+12029847540,6AOuv4-W8gke8jjqro8eeQ
GTWN-002,Call Your Mother Deli - Georgetown,"3428 O St NW, Washington, DC, DC, 20007",Coffee,Georgetown,4.4,429,$$,90,38.9076174,-77.068837,+12028916316,sXFBW4wWKmAraO4O_Z6nWg
DUP-015,Three Fifty Bakery and Coffee Bar,"1641 R St NW, Washington, DC, DC, 20009",Coffee,Dupont Circle,4.5,367,$$,89,38.91275337449321,-77.0382126,+12026291022,Ne6zAVweeVO8Wl9oFDqKSA
DUP-016,DUA DC Coffee,"923 15th St NW, Washington, DC, DC, 20005",Coffee,Dupont Circle,4.6,383,$$,89,38.90191,-77.03328,+12023474404,4-toMvtZ8lUd26BAKRLi4Q
LOG-004,The Coffee Bar,"1201 S St NW, Washington, DC, DC, 20009",Coffee,Logan Circle,4.2,368,$$,89,38.9143154,-77.0282699067459,+12027331049,YItzldHiPfZMpNnT0tBmcg
NAVY-001,Mitsitam Cafe,"4th St & Independence Ave SW, Washington, DC, DC, 20560",Cafe,Navy Yard / The Wharf,3.5,558,$$,89,38.88829950080687,-77.0173033623264,+12026331000,aVz4a0cG8liFp4h4Ijlgpg
PENN-006,Café du Parc,"1401 Pennsylvania Ave NW, Washington, DC, DC, 20004",Cafe,Penn Quarter / Chinatown,3.5,533,$$,89,38.896399178255265,-77.03237802331292,+12029427000,uPmJB-jwTcHsBnd6lZktFw
GTWN-003,Café Georgetown,"3141 N St NW, Washington, DC, DC, 20007",Wine Bar,Georgetown,4.0,373,$$,89,38.90693280779784,-77.06267278607866,+12027318373,16LSbC8W-lM9ljs88Lti_A
GTWN-004,Yellow The Cafe,"1524 Wisconsin Ave NW, Washington, DC, DC, 20007",Bakery,Georgetown,4.5,526,$$,89,38.909471,-77.064615,,vI1hA_38t6M8kvMAcbtxZQ
GTWN-005,Boulangerie Christophe,"1422 Wisconsin Ave NW, Washington, DC, DC, 20007",Bakery,Georgetown,4.0,545,$$,89,38.9082999,-77.06399,+12024506344,M6CCTsxdJ330872oM_QJSw
GTWN-006,Roll Play,"1800 N Lynn St, Arlington, VA, 22209",Coffee,Georgetown,4.2,334,$$,89,38.8969768687478,-77.07139654110463,+15718001881,M9MhHHorL39Gf-Mz7N9oEA
GTWN-007,Patisserie Poupon,"1645 Wisconsin Ave NW, Washington, DC, DC, 20007",Coffee,Georgetown,3.8,391,$$,89,38.9116325378418,-77.0652236938477,+12023423248,_6zoYrrpu0kYSBCia1EfYg
DUP-017,Mercy Me,"1143 New Hampshire Ave NW, Washington, DC, DC, 20037",Bar,Dupont Circle,3.9,462,$$$,88,38.904794,-77.047581,+12028287762,FXdIxIb0dXRnltRW10il_Q
DUP-018,Call Your Mother Deli - West End,"1143 New Hampshire Ave NW, Washington, DC, DC, 20037",Coffee,Dupont Circle,4.4,323,$$,88,38.90503489949321,-77.04746294334602,+12027730871,7iarOI_KWOJI4ajix30WuQ
DUP-019,Krispy Kreme,"1350 Connecticut Ave NW, Washington, DC, DC, 20036",Coffee,Dupont Circle,3.5,287,$,88,38.908667,-77.043209,+12024630414,pAPVXcKWXpfvju9egrxW-Q
HST-005,Jacob's Coffee House,"401 8th St NE, Washington, DC, DC, 20002",Coffee,H Street NE,4.3,280,$,88,38.894962310791,-76.9947509765625,+12025078812,hdihkmYZ3UWJk6-orDJ-hg
CAPH-003,Lot 38 Espresso Bar,"1001 2nd St SE, Washington, DC, DC, 20003",Coffee,Capitol Hill / Barracks Row,4.5,320,$,88,38.8776829823059,-77.0036673545837,+12027580677,Xim_ZO4YjoFb2_3VLsyBcQ
PENN-007,Compass Coffee,"650 F St NW, Washington, DC, DC, 20004",Coffee,Penn Quarter / Chinatown,4.2,320,$$,88,38.89714,-77.02100676404511,+12027465510,9YirmV6UfC5HSFHF-fUIQQ
PENN-008,Sharetea,"519 H St NW, Washington, DC, DC, 20001",Coffee,Penn Quarter / Chinatown,4.1,281,$,88,38.899973,-77.01967,+12027582570,Ys8jpYQaglJshg70CIjr3Q
PENN-009,La Colombe,"900 6th St NW, Washington, DC, DC, 20001",Coffee,Penn Quarter / Chinatown,4.1,322,$$,88,38.901050567627,-77.0201034545898,+12027957909,9YBiqRds8JDE1Ms6NDZa-A
GTWN-008,maman,"1353 Wisconsin Ave NW, Washington, DC, DC, 20007",Coffee,Georgetown,4.1,281,$$,88,38.90806198959202,-77.06343909032744,+12025063372,EwIhDv1vSyYhx2d5tyYjuQ
GTWN-009,Blue Bottle Coffee - Georgetown,"1046 Potomac St NW, Washington, DC, DC, 20007",Coffee,Georgetown,3.9,306,$$,88,38.90442169288419,-77.06537703382885,+15106533394,rWrGFz1nZbFLJEMFOHahsA
DUP-020,Barcelona Wine Bar,"1622 14th St NW, Washington, DC, DC, 20005",Wine Bar,Dupont Circle,4.2,2379,$$,87,38.912112566624955,-77.03215627334023,+12025885500,Ygce6oUeuww37_loxq264g
DUP-021,City Place Cafe,"1101 17th St NW, Washington, DC, DC, 20036",Coffee,Dupont Circle,4.4,258,$,87,38.90406,-77.03813,+12024664665,pHYTx7hrufsr7pDD_-E5Og
DUP-022,Jolt 'N Bolt Coffee & Tea House,"1918 18th St NW, Washington, DC, DC, 20009",Coffee,Dupont Circle,3.3,225,$,87,38.91616,-77.04183,,JiYBHEKElHmZsfottDnZUA
14TH-003,Rise Bakery,"2409 18th St NW, Washington, DC, DC, 20009",Bakery,14th Street Corridor,4.2,393,$,87,38.92081425118877,-77.04187161322285,+12025255204,NYhn5eKKa73EbMEhG0yKPQ
ADAM-002,Dos Gringos Cafe,"3116 Mt Pleasant St NW, Washington, DC, DC, 20010",Coffee,Adams Morgan,3.4,224,$,87,38.92941,-77.03793,+12024621159,cbAXPV2UkO60F48G9YLB-A
COLH-003,Ellē,"3221 Mt Pleasant St NW, Washington, DC, DC, 20010",Bar,Columbia Heights,4.0,392,$$,87,38.93173,-77.03816,+12026520040,vmfDN21Jck3Myny3W8t99g
COLH-004,Doubles,"3118 Georgia Ave NW, Washington, DC, DC, 20010",Bar,Columbia Heights,4.5,220,$,87,38.9296029509668,-77.0235609626942,+12027227202,0vZNEMGn9f9PXd9nhNRlbA
COLH-005,Le Caprice DC,"3456 14th St NW, Washington, DC, DC, 20010",Bakery,Columbia Heights,3.5,352,$,87,38.9328151,-77.032744,+12022903109,7l03_QI6dDUjTGzBzQ0sCw
HST-006,Songbyrd Record Cafe,"540 Penn St NE, Washington, DC, DC, 20009",Coffee,H Street NE,3.8,230,$$,87,38.91022,-76.99647,+12024502917,2QWLzwW0kxT98nFkHbSgVw
HST-007,Pluma By Bluebird Bakery,"391 Morse St NE, Washington, DC, DC, 20002",Coffee,H Street NE,4.3,229,$$,87,38.9079775974755,-77.0003633854441,,pSYCI8MwR-1W7xjAGJDgUQ
HST-008,Red Bear Brewing,"209 M St NE, Washington, DC, DC, 20002",Brewery,H Street NE,4.0,283,$$,87,38.90544,-77.00247,+12028496130,5lSmJIgwAhWJMNW5H_DXmg
CAPH-004,Call Your Mother,"701 8th St SE, Washington, DC, DC, 20003",Coffee,Capitol Hill / Barracks Row,4.3,252,$$,87,38.881123,-76.995282,+12026017655,73AjCQfjOdGQRzQ36duuNg
CAPH-005,Any Day Now,"2 I St SE, Washington, DC, DC, 20003",Coffee,Capitol Hill / Barracks Row,4.3,229,$$,87,38.87955,-77.00859,+17039662620,MYCsbqczPLkIxhKG5FSvkQ
CAPH-006,Le Bon Cafe,"210 2nd St SE, Washington, DC, DC, 20003",Coffee,Capitol Hill / Barracks Row,3.7,247,$$,87,38.8872604,-77.0033569,+12025477200,lDjyLBUx2-zc6ioCiay4EQ
CAPH-007,Corner Bakery Cafe,"500 N Capitol St NW, Washington, DC, DC, 20001",Coffee,Capitol Hill / Barracks Row,2.9,230,$$,87,38.89655775670364,-77.00949808931742,+12027880866,EQWAXG2pDvueNohw6DNlUg
PENN-010,L'Ardente,"200 Massachusetts Ave NW, Washington, DC, DC, 20001",Wine Bar,Penn Quarter / Chinatown,4.5,1530,$$$,87,38.89891904977066,-77.01407410000002,+12024480450,no3EVuDJlxO52sPUOFPVTg
PENN-011,Tatte Bakery & Cafe,"250 Massachusetts Ave NW, Washington, DC, DC, 20001",Coffee,Penn Quarter / Chinatown,4.0,254,$$,87,38.89933,-77.01466,+12027332387,qrTvx18xrMNUR3QUjdraxQ
PENN-012,Sweet Home Cafe,"1400 Constitution Ave NW, Washington, DC, DC, 20560",Cafe,Penn Quarter / Chinatown,3.5,357,$$,87,38.891244,-77.03237,+12026334751,P6sqPkaNNdZsH23v2u_Usw
GTWN-010,il Canale,"1065 31st St, Washington, DC, DC, 20007",Wine Bar,Georgetown,4.3,5139,$$,87,38.904493,-77.0609744,+12023374444,9X0F8gl4mPSSFHkxSB2lXA
GTWN-011,Filomena Ristorante,"1063 Wisconsin Ave NW, Washington, DC, DC, 20007",Wine Bar,Georgetown,4.2,3788,$$$,87,38.90440452447182,-77.06246250425131,+12023388800,U0tfep9yNBASTe2zAG6cPw
GTWN-012,Dog Tag Bakery,"3206 Grace St NW, Washington, DC, DC, 20007",Bakery,Georgetown,4.4,361,$,87,38.90383,-77.06317,+12024079609,SF2nnyDG-O1pXqX3UhJSoQ
GTWN-013,Crumbs & Whiskers - Kitten & Cat Cafe,"3109 M St NW, Washington, DC, DC, 20007",Coffee,Georgetown,4.6,244,,87,38.905315280565354,-77.0615058,+12023332814,G62_iggmugDRXJf_i25Hhw
DUP-023,Pisco y Nazca Ceviche Gastrobar,"1823 L St NW, Washington, DC, DC, 20036",Bar,Dupont Circle,4.6,2863,$$,86,38.90398223,-77.0426388,+12025593726,VlDWu_ftKpLmWoC0x7x1dA
DUP-024,Mission - Dupont Circle,"1606 20th St NW, Washington, DC, DC, 20009",Bar,Dupont Circle,4.0,1451,$$,86,38.91149,-77.04519,+12025252010,LaDz_zmEQSQGyLvwgHSezw
DUP-025,"Hank’s Oyster Bar, Dupont Circle","1624 Q St NW, Washington, DC, DC, 20009",Bar,Dupont Circle,3.9,1542,$$,86,38.91094,-77.03812,+12024624265,Iq1BwdGAOIVF8ki7Bh0Jug
DUP-026,Blue Duck Tavern,"1201 24th St NW, Washington, DC, DC, 20037",Bar,Dupont Circle,4.1,2770,$$$,86,38.9055917636612,-77.0511932944776,+12027891234,zeTqaVpvssznHt_1IxChXQ
DUP-027,JINYA Ramen Bar - Logan Circle,"1336 14th St NW, Washington, DC, DC, 20005",Bar,Dupont Circle,4.1,1398,$$,86,38.908489,-77.032276,+12025888560,ys7FRI3OL7IvyTGZ9Y3EQQ
DUP-028,Lupo Verde,"1401 T St NW, Washington, DC, DC, 20009",Wine Bar,Dupont Circle,3.8,1025,$$,86,38.91571,-77.03223,+12028274752,3Zu6NdKTR9fLfeldVwkWCw
DUP-029,Nino's Bakery,"1310 L St NW, Washington, DC, DC, 20005",Coffee,Dupont Circle,4.8,204,$$,86,38.903555,-77.030344,+12024399617,AlBPgkqSu5VNYgccV0oBdg
DUP-030,Java House,"1645 Q St NW, Washington, DC, DC, 20009",Coffee,Dupont Circle,3.0,194,$,86,38.9112378,-77.038195,+12023876622,HOfa0j1SSZflK-tlps7gXA
LOG-005,Chaplin's,"1501 9th St NW, Washington, DC, DC, 20001",Bar,Logan Circle,4.0,1468,$$,86,38.909798,-77.023651,+12026448806,6dzlGp9EtHAIHHB8oVyGhw
ADAM-003,Purple Patch,"3155 Mt Pleasant St NW, Washington, DC, DC, 20010",Bar,Adams Morgan,4.4,1597,$$,86,38.93057,-77.03762,+12022990022,ZgjCUSm-El-zEGdRm769nQ
ADAM-004,Mount Desert Island Ice Cream,"3110 Mt Pleasant St NW, Washington, DC, DC, 20010",Coffee,Adams Morgan,4.6,200,$$,86,38.9291879,-77.0377248,+12408047038,D8MPRmp2oAOZiAs8OWevBg
HST-009,Toki Underground,"1234 H St NE, Washington, DC, DC, 20002",Bar,H Street NE,4.1,2605,$$,86,38.90041,-76.98903,+12023883086,HQ404fe3ndkAprE00uxWLA
HST-010,Milk & Honey Express,"1116 H St NE, Washington, DC, DC, 20002",Cafe,H Street NE,4.0,319,$$,86,38.9003623,-76.99083499999999,+12023881815,jWhCkGX4FrkUCn_W9KV__g
HST-011,Laos In Town,"250 K St NE, Washington, DC, DC, 20002",Restaurant,H Street NE,4.4,1098,$$,86,38.902842618477194,-77.00229728650758,+12028646687,R-IGoudMDc5VX9MEPTU7ew
HST-012,Spot of Tea - Union Market,"1309 5th St NE, Washington, DC, DC, 20002",Coffee,H Street NE,4.6,180,$$,86,38.908598,-76.997378,+18333221754,5FsYqbLJOj-7T110pLiECg
CAPH-008,Osteria Morini,"301 Water St SE, Washington, DC, DC, 20003",Wine Bar,Capitol Hill / Barracks Row,4.1,1033,$$$,86,38.8732811503001,-77.0013823336199,+12024840660,mg7MWqAqmEvZttxxnTHBmQ
PENN-013,The Smith,"901 F St NW, Washington, DC, DC, 20004",Bar,Penn Quarter / Chinatown,3.9,1718,$$,86,38.89756872489442,-77.02435211534113,+12028684900,axeT144_-6Z4Hui-lDbAUQ
PENN-014,The Capital Grille,"601 Pennsylvania Ave NW, Washington, DC, DC, 20004",Wine Bar,Penn Quarter / Chinatown,4.3,1146,$$$,86,38.89311,-77.020168,+12027376200,Y5VHK5uzYqAPN-UFt6DDUw
PENN-015,maman,"750 9th St NW, Washington, DC, DC, 20036",Coffee,Penn Quarter / Chinatown,4.1,178,$$,86,38.89942720315017,-77.02447724974593,+12025164666,IbClzKopEMRfGx9NQCV4cw
PENN-016,Corner Bakery Cafe,"529 14th St NW, Washington, DC, DC, 20045",Cafe,Penn Quarter / Chinatown,2.8,304,$,86,38.89711781,-77.03156808,+12026627400,UfZamgswmLPb-LCuTl9POQ
GTWN-014,Flavio Restaurant,"1073 31st St NW, Washington, DC, DC, 20007",Wine Bar,Georgetown,4.0,1161,$$,86,38.9046096801758,-77.0608749389648,+12029656666,E3Qj0AHTtnbRvyVojXO7IQ
DUP-031,Floriana,"1602 17th St NW, Washington, DC, DC, 20009",Wine Bar,Dupont Circle,4.1,967,$$,85,38.91133287092,-77.0386550000805,+12026675937,xH-lzsOv7ZlapoPfOlWL6w
DUP-032,JoJo Restaurant and Bar,"1518 U St NW, Washington, DC, DC, 20009",Wine Bar,Dupont Circle,4.2,942,$$$,85,38.91685,-77.03539,+12023199350,CWb1DRN9WAFGE-jzwQtJTA
DUP-033,Uptowner Cafe,"2400 M St NW, Washington, DC, DC, 20037",Coffee,Dupont Circle,3.9,163,$,85,38.90481228567647,-77.05166300674593,+12027750520,D9zhHpIfTmIwDLYk0CIEdg
DUP-034,Filter Coffeehouse Foggy Bottom,"1916 I St NW, Washington, DC, DC, 20006",Coffee,Dupont Circle,4.1,141,$$,85,38.9011876054021,-77.0442822416078,+12022230100,cPahoI6zjwr5eEWICysSDg
DUP-035,For Five Coffee Roasters,"2000 L St NW, Washington, DC, DC, 20036",Coffee,Dupont Circle,3.6,156,$$,85,38.9034384,-77.0457423,+12029200101,YoWII9X6jRGv9_Gvo5GImQ
DUP-036,Gregorys Coffee,"1101 Connecticut Ave NW, Washington, DC, DC, 20036",Coffee,Dupont Circle,4.1,146,$$,85,38.904301990277055,-77.03993346781644,+18772155327,GGS_xDYWevPyMpm9IpKmrg
DUP-037,Gong Cha,"1399 New York Ave NW, Washington, DC, DC, 20005",Coffee,Dupont Circle,4.1,139,,85,38.8998745351112,-77.0316030666667,,MdXic7dyb9_WuX21kslc3g
LOG-006,The Capital Burger,"1005 7th St NW, Washington, DC, DC, 20001",Bar,Logan Circle,4.3,1116,$$,85,38.90331,-77.021605,+12026380414,bCQEdpKSY563iAzq7cMcGA
LOG-007,Family Ethiopian Resturant,"1414 9th St NW, Washington, DC, DC, 20001",Bar,Logan Circle,4.6,167,$$,85,38.909153,-77.024216,+12026292950,2Q5T6SFM7thhr_W7VbKnAw
14TH-004,Lapis,"1847 Columbia Rd NW, Washington, DC, DC, 20009",Bar,14th Street Corridor,4.3,1155,$$,85,38.9213,-77.04392,+12022999630,xeOXTasySvPyKTZC6-BxFQ
14TH-005,Soleluna,"1789 Columbia Rd NW, Washington, DC, DC, 20009",Coffee,14th Street Corridor,4.6,158,,85,38.923114551740255,-77.0423368,,_WxNQeKwlFKTpQ93k8gLnQ
SHAW-002,The Red Hen,"1822 1st St NW, Washington, DC, DC, 20001",Bar,Shaw,4.2,1139,$$$,85,38.91502,-77.01239,+12025253021,NBg86yfipIHN3PBJUVcoaA
COLH-006,Taqueria Habanero,"3710 14th St NW, Washington, DC, DC, 20010",Bar,Columbia Heights,4.3,1106,$$,85,38.93755,-77.03309,+12027227700,094fHChJkrJqztSFCn3ezA
COLH-007,La Tejana,"3211 Mt Pleasant St NW, Washington, DC, DC, 20010",Coffee,Columbia Heights,4.4,170,$$,85,38.9315184,-77.0382124,+12026218509,hChQEUMCoUk-VcJTlHIFkw
PETW-002,Büna Coffeehouse,"4400 Georgia Ave NW, Washington, DC, DC, 20011",Coffee,Petworth,4.7,172,$$,85,38.9441184997559,-77.0264511108398,+12028822223,YUHzh9yvtsrhdDYAfQavHA
HST-013,Yellow,"417 Morse St NE, Washington, DC, DC, 20002",Coffee,H Street NE,4.3,158,$$,85,38.90745529735653,-76.99934869846697,,l4ukcYAlP-G72ESJvGikLg
HST-014,maman,"1300 4th St NE, Washington, DC, DC, 20002",Coffee,H Street NE,4.0,153,,85,38.90928613650869,-76.99926470183505,+12024645033,aJOh6r-enfn7bAVAwdtXVw
CAPH-009,Agua 301,"301 Water St SE, Washington, DC, DC, 20003",Bar,Capitol Hill / Barracks Row,3.4,1078,$$,85,38.873345792214614,-77.00168714457095,+12024840301,6hbEIUuqBSXv4RrqStgWTQ
CAPH-010,The Roost,"1401 Pennsylvania Ave SE, Washington, DC, DC, 20003",Coffee,Capitol Hill / Barracks Row,4.2,156,$$,85,38.87980720664,-76.9852322620679,+12026610142,2I83iVac0MptEi7RpoxYQQ
PENN-017,Gregorys Coffee,"443 7th St NW, Washington D.c, DC, 20004",Coffee,Penn Quarter / Chinatown,3.8,154,$$,85,38.8959499,-77.02177979999999,+18772202286,scocIBRq5UGTVBYpU3bQTw
PENN-018,Swings Coffee,"640 14th St NW, Washington, DC, DC, 20005",Coffee,Penn Quarter / Chinatown,4.4,142,$$,85,38.8977603,-77.0320949,+12026520188,NdXX11-J_jWwD7n72LzagQ
PENN-019,Timgad Cafe,"1300 Pennsylvania Ave NW, Washington, DC, DC, 20004",Coffee,Penn Quarter / Chinatown,4.1,154,$,85,38.89360349731878,-77.02926874631972,+12022896444,hmfmuG-mWullRxxEKJq1bw
GTWN-015,Bourbon Steak,"2800 Pennsylvania Ave NW, Washington, DC, DC, 20007",Bar,Georgetown,4.0,965,$$$$,85,38.904477563605,-77.0578108098564,+12029442026,-ZDHvLrJPiDqkL8iD01V1A
GTWN-016,Compass Coffee,"1201 Wilson Blvd, Arlington, VA, 22209",Coffee,Georgetown,4.0,148,$$,85,38.89531,-77.071371,,Xd1lqD6DW1Ths3PiDZOoyg
GLOV-001,Open City At the National Cathedral,"3101 Wisconsin Ave NW, Washington, DC, DC, 20015",Coffee,Glover Park / Cathedral,3.8,165,$$,85,38.92981115096891,-77.07135502599509,+12029657670,eSymgsBHmJ4Pr37iUhzcQQ
DUP-038,Swingers Crazy Golf,"1330 19th St NW, Washington, DC, DC, 20036",Bar,Dupont Circle,4.6,913,$$,84,38.90871482301441,-77.04405149120134,+12029681080,K_GCqAHAuIrv4egknfXPgA
DUP-039,Taberna del Alabardero,"1776 I St NW, Washington, DC, DC, 20006",Wine Bar,Dupont Circle,3.8,666,$$$,84,38.90097970141569,-77.04142383154115,+12024292200,qvVZpFsQULU1R97rNKbPtA
DUP-040,Jack Rose Dining Saloon,"2007 18th St NW, Washington, DC, DC, 20009",Bar,Dupont Circle,3.8,868,$$$,84,38.91739,-77.0413,+12025887388,VX3yTxNj9hjur58ZFdj0jA
DUP-041,Mxdc Cocina Mexicana,"1610 14th St NW, Washington, DC, DC, 20009",Bar,Dupont Circle,3.5,888,$$,84,38.9115387,-77.03231834572797,+12023931900,6cGNrx8HkNdbqNY-nLXmyg
DUP-042,Mikko,"1636 R St NW, Washington, DC, DC, 20009",Cafe,Dupont Circle,4.4,195,$$,84,38.91241,-77.03797,+12025253919,94EgqS3QkCrDUtOGzvIrrA
DUP-043,Tatte Bakery & Cafe,"1634 I St NW, Washington, DC, DC, 20006",Coffee,Dupont Circle,4.3,136,$$,84,38.90124763268285,-77.03886612004283,+12029847077,KUnaHw4uVAarHnM5F06YHQ
DUP-044,Spot of Tea - Dupont Circle,"2101 P St NW, Washington, DC, DC, 20037",Coffee,Dupont Circle,4.7,115,$$,84,38.909786,-77.046866,+18445679632,iK21xOxLqycv71xeuBMPuQ
DUP-045,Bluestone Lane The Darcy,"1515 Rhode Island Ave NW, Washington, DC, DC, 20005",Coffee,Dupont Circle,3.9,129,,84,38.907868,-77.035532,+17183746858,HwCXs7tjIL0kOuLdvy1zTQ
DUP-046,Bluestone Lane - Logan Circle Café,"1367 R St NW, Washington, DC, DC, 20009",Coffee,Dupont Circle,4.2,121,$$,84,38.9125855295955,-77.0311773,+17183746858,SWaWOdCXKeeiEleMGz5NHw
DUP-047,Compass Coffee,"849 18th St NW, Washington, DC, DC, 20006",Coffee,Dupont Circle,4.1,127,$,84,38.90104283047646,-77.04142889811735,,u-P3QcT0SsW6X9qeKPaf8w
DUP-048,La Colombe,"1346 Florida Ave NW, Washington, DC, DC, 20009",Coffee,Dupont Circle,3.4,120,$$,84,38.9199028015137,-77.0311737060547,+12027957962,uxqJtL1oe2uehe83FuL_Ow
LOG-008,Tiger Fork,"922 N St NW Blagden Alley, Washington, DC, DC, 20001",Bar,Logan Circle,3.9,955,$$,84,38.90650206327124,-77.02480785055737,+12027331152,JRMBqM82xzMgDfAYRK9wSA
LOG-009,Tortino Restaurant,"1228 11th St NW, Washington, DC, DC, 20001",Bar,Logan Circle,4.2,873,$$,84,38.906591,-77.027296,+17712329619,DBzIfEeZ9yKLF6n851DQsA
LOG-010,Yardbird,"901 New York Ave NW, Washington, DC, DC, 20001",Bar,Logan Circle,3.8,860,$$$,84,38.902001750586145,-77.0258959538568,+12023332450,f6RUYzCeVfdZXFnKSq1Lng
LOG-011,The Dabney,"122 Blagden Aly NW, Washington, DC, DC, 20001",Bar,Logan Circle,4.3,891,$$$$,84,38.9063563388808,-77.0244961023773,+12022402660,DuV3x_27YsTJNjs5soujLQ
LOG-012,El Rey,"919 U St NW, Washington, DC, DC, 20001",Restaurant,Logan Circle,3.4,519,$$,84,38.9171363,-77.0248018,+12025066418,7w23Rk9NzOzIiDLfYr06QQ
14TH-006,Sankofa Video Books & Cafe,"2714 Georgia Ave NW, Washington, DC, DC, 20001",Cafe,14th Street Corridor,4.6,179,$,84,38.925561,-77.02315,+12022344755,Qw35fIYpmBTdFuaGWjw2gg
SHAW-003,Baan Siam,"425 I St NW, Washington, DC, DC, 20001",Bar,Shaw,4.5,696,$$,84,38.90147950746981,-77.01634228634687,+12025885889,iORMLvXAbFbe9xLDlT_C6g
COLH-008,Harrar Coffee & Roastery,"2904 Georgia Ave NW, Washington, DC, DC, 20001",Coffee,Columbia Heights,4.6,131,$,84,38.9273769324706,-77.0232442503307,+12022990101,yMjOd5wvmiUiyQuIn7WjEQ
HST-015,Copycat Co,"1110 H St NE, Washington, DC, DC, 20002",Bar,H Street NE,4.3,815,$$,84,38.9004517,-76.9910202,+12022411952,JIQovrnYjGETxHQD6kAb0Q
HST-016,Bistro Cacao,"316 Massachusetts Ave NE, Washington, DC, DC, 20002",Bar,H Street NE,4.2,828,$$$,84,38.8944704296041,-77.00110386499308,+12025464737,eQlcG7GfMwJeiGELy_Xe0Q
HST-017,Union Kitchen,"538 3rd St NE, Washington, DC, DC, 20002",Coffee,H Street NE,4.1,125,$$,84,38.89717,-77.00231,+12027927850,hw5ZsyATyF0Vd7xy6WqzQw
HST-018,Peregrine Espresso,"1309 5th St NE, Washington, DC, DC, 20002",Coffee,H Street NE,4.0,116,$,84,38.9087806,-76.9979685,+12025435459,GIgPMcJsuUwIbXrGm-VBXg
CAPH-011,Barrel,"613 Pennsylvania Ave SE, Washington, DC, DC, 20003",Bar,Capitol Hill / Barracks Row,4.3,956,$$,84,38.8851357980807,-76.9978595803566,+12025433623,RQN0Dj9tKLbzZG8ByY3N2A
CAPH-012,Acqua Al 2,"212 7th St SE, Washington, DC, DC, 20003",Wine Bar,Capitol Hill / Barracks Row,4.2,786,$$,84,38.88690559407774,-76.99585728913462,+12025254375,7pQkf1sCiZL42RGsUHDlLQ
PENN-020,Dirty Habit,"555 8th St NW, Washington, DC, DC, 20004",Bar,Penn Quarter / Chinatown,3.7,974,$$$,84,38.896972277973695,-77.02242938991759,+12024497095,VDezBOqn852wfl_cRiERsg
PENN-021,La Grande Boucherie,"699 14th St NW, Washington, DC, DC, 20005",Bar,Penn Quarter / Chinatown,4.3,808,$$$,84,38.89817,-77.03162,+17712084804,EStueerEiH5bNEVGAHMjLg
PENN-022,The Ministry,"601 New Jersey Ave NW, Washington, DC, DC, 20001",Wine Bar,Penn Quarter / Chinatown,4.3,132,$$,84,38.8978502,-77.011664,+12028133951,dwdOvTaaxjjoaFrx7IeQaw
PENN-023,Sculpture Garden Pavilion Cafe,"101-199 9th St NW, Washington, DC, DC, 20004",Cafe,Penn Quarter / Chinatown,3.4,187,$$,84,38.8912963362117,-77.0235422252446,+12022893360,CSMIDlfcNjetTIFppVHprw
GTWN-017,Compass Coffee,"1351 Wisconsin Ave NW, Washington, DC, DC, 20007",Coffee,Georgetown,4.2,129,$$,84,38.9079272113141,-77.0635198205313,+12028383193,HrOMrZeCGfClP-gSepo2-g
GLOV-002,Cactus Cantina,"3300 Wisconsin Ave NW, Washington, DC, DC, 20016",Bar,Glover Park / Cathedral,3.5,949,$$,84,38.93367559566664,-77.0726921,+12026867222,TKMysgfEmzoEXAT1A0-jIA
DUP-049,Kitchen Kocktails By Kevin Kelley,"1300 I St NW, Washington, DC, DC, 20005",Bar,Dupont Circle,3.6,723,$$$$,83,38.901005,-77.03033,+12029986538,PNvHJd4SORav4Gv9kUVSJA
DUP-050,Cork Wine Bar And Market,"1805 14th St NW, Washington, DC, DC, 20009",Wine Bar,Dupont Circle,3.5,597,$$,83,38.91436,-77.03154,+12022652675,d0mhbSYwlhLjAhQaPSkcOw
DUP-051,Yerevan,"2204 18th St NW, Washington, DC, DC, 20009",Coffee,Dupont Circle,4.6,90,$,83,38.91904458045658,-77.04174314896505,+12025165924,Ldm1tzHlw--JRGASgNSNVw
DUP-052,The Coffee Bar,"1200 17th St NW, Washington, DC, DC, 20036",Coffee,Dupont Circle,4.1,109,$$,83,38.905979,-77.038866,+12022961090,SUlAlYRcMUVEgE_LEfB3jw
DUP-053,Gregorys Coffee,"1900 L St NW, Washington D.c, DC, 20036",Coffee,Dupont Circle,3.9,95,$,83,38.90349387308383,-77.04366954596327,+18772143705,BDKMgaUCbJ_7yu1qyFiseA
DUP-054,La Colombe,"1710 I St NW, Washington, DC, DC, 20006",Coffee,Dupont Circle,4.3,109,$,83,38.90119027315654,-77.04015745482744,+12028466823,xm5UxeazN3CwQiN8zaq14A
DUP-055,Gregorys Coffee,"1000 Vermont Ave NW, Washington D.c, DC, 20005",Coffee,Dupont Circle,4.0,105,$,83,38.902973973833326,-77.0339742,+18772129983,p42sf5YD-_0T_-wcUcdvLQ
LOG-013,All-Purpose Shaw,"1250 9th St NW, Washington, DC, DC, 20001",Wine Bar,Logan Circle,4.1,571,$$,83,38.906941,-77.024206,+12028496174,8GZ5cmYIgNoRkXnxUPqmgw
LOG-014,Union Kitchen,"1251 9th St NW, Washington, DC, DC, 20001",Coffee,Logan Circle,4.2,100,$$,83,38.9067618304296,-77.0236993143936,+12027927850,PW8qjRltPCk4zV0DeWZ-GQ
LOG-015,Deli Zique,"650 Massachusetts Ave NW, Washington, DC, DC, 20001",Coffee,Logan Circle,3.8,108,$,83,38.901534,-77.0215305,+12024080417,gOwVBdXhfW-HWUF0vrB6ZQ
LOG-016,Compass Coffee,"1921 8th St NW, Washington, DC, DC, 20001",Coffee,Logan Circle,4.0,97,$$,83,38.916256,-77.022773,+12028383139,2jukv5mDaPv0u94thK8JeQ
SHAW-004,Creative Grounds DC,"1822 North Capitol St Nw Washington Dc 20002, Washington, DC, DC, 20002",Coffee,Shaw,4.7,92,,83,38.91471,-77.00945,+12027302979,ceafVsi9pvBc2sp3Pc_S3g
SHAW-005,Chez Lily,"425 I St NW, Washington, DC, DC, 20001",Coffee,Shaw,4.1,101,,83,38.90146942706967,-77.01714902350017,+12027355137,-rzisxM53GvSDvo8Ka_lXw
SHAW-006,Sylvan Cafe & Restaurant ,"104 Rhode Island Ave NW, Washington, DC, DC, 20001",Bakery,Shaw,4.0,144,$,83,38.915319,-77.01261,+12026292040,drhLjlJEqHgCyHTV-4nTcQ
COLH-009,El Chucho,"3313 11th St NW, Washington, DC, DC, 20010",Bar,Columbia Heights,3.6,742,$$,83,38.931091,-77.027794,+12022903313,zTtHy3IVy-QgwAZanG4_Iw
HST-019,Junction Bistro Bar and Bakery,"238 Massachusetts Ave NE, Washington, DC, DC, 20002",Bar,H Street NE,4.2,107,$$,83,38.894935,-77.0022589,+12028005222,B562AP3CXTSroc_boiRUCw
HST-020,Wine & Butter Cafe & Market,"1023 E Capitol St SE, Washington, DC, DC, 20003",Coffee,H Street NE,4.2,101,,83,38.88953,-76.99171,+12023362109,Ohmy4oywYctSvEdm1fSzKg
HST-021,Blue Bottle Coffee - Union Market,"1250 4th St NE, Washington, DC, DC, 20002",Coffee,H Street NE,4.1,101,$$,83,38.908168,-77.000179,+15106533394,ULWO0vfE9t0alUWrx9_F-g
CAPH-013,Ama,"885 New Jersey Ave SE, Washington, DC, DC, 20003",Coffee,Capitol Hill / Barracks Row,4.1,108,,83,38.88015,-77.00566,+12028302505,QC9ZnG9F7WeqnAKZ6XBNdA
CAPH-014,Gregorys Coffee,"1111 New Jersey Ave SE, Washington D.c, DC, 20003",Coffee,Capitol Hill / Barracks Row,3.8,105,$$,83,38.87698839999999,-77.0044963,+18772202178,o6-Lf2yWHXNv62mslRfIOg
PENN-024,Ocean Prime,"1341 G St NW, Washington, DC, DC, 20005",Bar,Penn Quarter / Chinatown,4.3,789,$$$$,83,38.89857728095185,-77.03154355287552,+12023930313,6hKXwAz3--qrezFyK7wDRw
PENN-025,Tipsy Scoop,"675 I St NW, Washington, DC, DC, 20001",Coffee,Penn Quarter / Chinatown,4.3,90,$$,83,38.90104746029177,-77.02144683078389,+12025164182,WLbeL0t658oEoEaFo8njVw
PENN-026,Capital One Café,"732 7th St NW, Washington, DC, DC, 20001",Coffee,Penn Quarter / Chinatown,3.8,102,$$,83,38.89953301812446,-77.02215,+12023137005,31spgH5Y39pnxvO1FMwMnQ
GTWN-018,Peacock Cafe,"3251 Prospect St, Washington, DC, DC, 20007",Wine Bar,Georgetown,3.9,636,$$,83,38.9061995,-77.06431,+12026252740,aThCiF4M05ngSBGlz8qGeg
GTWN-019,L.A. Burdick Handmade Chocolates,"1319 Wisconsin Ave NW, Washington, DC, DC, 20007",Coffee,Georgetown,4.3,105,,83,38.90718,-77.06305,+12026183338,jNmiJp6Ci4mo37OMnU5WuA
GTWN-020,Capital One Café,"3150 M St NW, Washington, DC, DC, 20007",Coffee,Georgetown,4.2,92,,83,38.904992,-77.062633,+12027303840,OaWV78h-blB9-iFZm2W0MA
NOMA-001,Uptown Cafe,"131 M St NE, Washington, DC, DC, 20002",Coffee,NoMa / Union Market,3.6,93,$,83,38.905458,-77.005096,+12028423777,XTDcNGDsxvFDkTuHKyOIAA
NOMA-002,Sandwiches by Phillip,"77 K St NE, Washington, DC, DC, 20002",Coffee,NoMa / Union Market,3.4,95,$,83,38.9020385742188,-77.0063705444336,+12028982057,HCq4QL-p1EOkFYaJ4Y7CaA
NOMA-003,Crepe Lena,"40 Massachusetts Ave NE, Washington, DC, DC, 20002",Coffee,NoMa / Union Market,3.6,93,$,83,38.8977319663565,-77.0062738313353,+15713313926,GKUoWNBwulp8ZD6y2uEhbQ
DUP-056,Astoria DC,"1521 17th St NW, Washington, DC, DC, 20036",Bar,Dupont Circle,4.3,603,$$$,82,38.91052,-77.03813,,cHvf3L4NAklSE4j9agOkHQ
DUP-057,Residents Cafe & Bar,"1306 18th St NW, Washington, DC, DC, 20036",Bar,Dupont Circle,4.3,634,$$,82,38.90795,-77.04186,+12023734748,9yIWxgK6JJ9uo0ix9PDdIg
DUP-058,Thai Chef Street Food,"1712 Connecticut Ave NW, Washington, DC, DC, 20009",Bar,Dupont Circle,4.2,607,$$,82,38.91302,-77.04581,+12022345698,WTJ0tdc3_tsTmYABrfamqw
DUP-059,North Italia,"2112 Pennsylvania Ave NW, Washington, DC, DC, 20037",Bar,Dupont Circle,4.1,567,$$,82,38.90142,-77.04761,+12028038051,bdRDMuU5MsWkwP0w0R4pPQ
DUP-060,Colada Shop,"1900 N St NW, Washington, DC, DC, 20036",Bar,Dupont Circle,3.9,86,$$,82,38.907064,-77.043662,+12027732016,V4GyQTWNgIJSAGFKUn_0CA
DUP-061,Lucky Buns,"2000 18th St NW, Washington, DC, DC, 20009",Bar,Dupont Circle,4.0,632,$$,82,38.9170475222847,-77.0417802543844,+12025061713,FryMYKLij5RplQcfc7bnhA
DUP-062,Mazi,"1518 K St NW, Washington, DC, DC, 20005",Wine Bar,Dupont Circle,4.5,415,$$$,82,38.90213,-77.03544,+12029692858,rvAvfiL7kwTp5bR02lHegA
DUP-063,Dupont Italian Kitchen,"1637 17th St NW, Washington, DC, DC, 20009",Wine Bar,Dupont Circle,3.7,462,$$,82,38.91236,-77.0382599,+12023283222,-bEH3OOngPUCYRGJsnkkDQ
DUP-064,The Prime Rib,"2020 K St NW, Washington, DC, DC, 20006",Wine Bar,Dupont Circle,3.9,486,$$$$,82,38.902313950775486,-77.04580715608644,+12024668811,hf72YBo_ExrEqJnrZniyqQ
DUP-065,Pappe,"1317 14th St NW, Washington, DC, DC, 20005",Bar,Dupont Circle,4.0,570,$$$,82,38.90783,-77.03162,+12028888220,jj1vSlzf-G1_vTJJ6ftsAA
DUP-066,The Park at 14th,"920 14th St NW, Washington, DC, DC, 20005",Bar,Dupont Circle,3.8,1369,$$,82,38.90192164703521,-77.03227518745507,+12025500300,UToNAlfVve0b50dUs2uOWQ
DUP-067,RIS,"2275 L St NW, Washington, DC, DC, 20037",Bar,Dupont Circle,3.7,533,$$,82,38.90387399999999,-77.0499071,+12027302500,MQGFDN8oWFWGhZGgISG2bw
DUP-068,Ruth's Chris Steak House,"2001 K St NW, Washington, DC, DC, 20006",Wine Bar,Dupont Circle,3.6,454,$$$,82,38.90302956482276,-77.04517728725163,+12029185583,W-6JWToQHBvGUbfw6Y-THQ
DUP-069,Zeleno,"1605 Connecticut Ave NW, Washington, DC, DC, 20009",Cafe,Dupont Circle,4.3,113,$$,82,38.911483,-77.044128,+12026521524,1a9UjM6dz5cT9YEEThDYTw
DUP-070,Toastique,"1899 N St NW, Washington, DC, DC, 20036",Coffee,Dupont Circle,4.1,72,$$,82,38.90744711,-77.04312035,+12025067169,u4HXgZsMtBzQDVRBFHHrmA
DUP-071,Compass Coffee,"1401 Eye St NW, Washington, DC, DC, 20005",Coffee,Dupont Circle,4.2,88,$$,82,38.901542,-77.032095,+12028383193,xkMMVwEuJ2dwATVnhCa24A
DUP-072,Tatte Bakery & Cafe,"2129 I St NW, Washington, DC, DC, 20037",Cafe,Dupont Circle,3.9,113,$$,82,38.90088,-77.04791,+12029847656,LiQvGBRSOdTdEx6fIA8k8A
LOG-017,Beau Thai,"1550 7th St NW, Washington, DC, DC, 20001",Wine Bar,Logan Circle,3.7,473,$$,82,38.9098422531166,-77.0220197018524,+12025365636,clV4TsDUa0WAUYChiDYxtQ
LOG-018,Oohh's & Aahh's,"1005 U St NW, Washington, DC, DC, 20001",Bar,Logan Circle,3.4,1679,$$,82,38.91713587922594,-77.02623794736523,+12026677142,o2OElDpps0kcLjb32XW3ew
LOG-019,Sost,"1901 9th St NW, Washington, DC, DC, 20001",Coffee,Logan Circle,4.1,76,$$$,82,38.91583964992567,-77.0237477,+12025195522,VI8qftqpSBnzJOwuZt_KLA
LOG-020,Takoda,"715 Florida Ave NW, Washington, DC, DC, 20001",Bar,Logan Circle,3.4,447,$$,82,38.91677,-77.02255,+12025251257,CwYs9PmRCK9wFR9dQV4-hw
LOG-021,Baker’s Daughter,"1201 K St NW, Washington, DC, DC, 20005",Coffee,Logan Circle,3.4,82,,82,38.90292,-77.02855,+12027580827,HrE7V7uCvrV2Swj6OYu8tw
LOG-022,Dacha Beer Garden,"1600 7th St NW, Washington, DC, DC, 20001",Restaurant,Logan Circle,4.1,505,$$,82,38.91134387229278,-77.02214215768534,+12023509888,B3r0WIreZsZvvfsav4yUBQ
COLH-010,RedRocks Columbia Heights,"1036 Park Rd NW, Washington, DC, DC, 20010",Bar,Columbia Heights,3.7,594,$$,82,38.93169,-77.02804,+12025061402,xbpKt-oMCx5DuJuv0At1Ng
PETW-003,Lulabelle's Sweet Shop,"847 Upshur St NW, Washington, DC, DC, 20011",Coffee,Petworth,4.6,71,$$,82,38.942126,-77.0247825,+12028045800,LD5e5PF3Ac2bHNvqgwfCoQ
HST-022,Solid State Books,"600 H St NE, Washington, DC, DC, 20002",Bar,H Street NE,4.7,80,$$,82,38.9003365874488,-76.99679710468791,+12028974201,i3455e8UeKr5GwEzYPJvIA
HST-023,Angelika Pop-Up at Union Market,"550 Penn Street NE, Washington, DC, DC, 20002",Bar,H Street NE,3.9,131,$,82,38.9100542196086,-76.9963973547133,+15715123311,Dlh1BJZ2GYM7HsBULKlE4g
HST-024,Unido Panama Coffee Roasters,"1280 4th St NE, Washington, DC, DC, 20002",Coffee,H Street NE,4.1,74,$$,82,38.908986,-76.999617,,EDcqUYaIOksw0Obyz0Fz6w
CAPH-015,Sonoma Restaurant and Wine Bar,"223 Pennsylvania Ave SE, Washington, DC, DC, 20003",Wine Bar,Capitol Hill / Barracks Row,3.5,488,$$$,82,38.88698597900622,-77.0026635,+12025448088,PLsmfWUaCvdXmWWiD_yhzg
CAPH-016,DC-Donuts,"225 7th St SE, Washington, DC, DC, 20003",Coffee,Capitol Hill / Barracks Row,4.4,85,$,82,38.88642,-76.99647,,6johS-EZa1gx2W0uWpy3Tg
CAPH-017,Cafe Phillips,"50 F St NW, Washington, DC, DC, 20001",Coffee,Capitol Hill / Barracks Row,2.8,73,$$,82,38.89710797169224,-77.01037158547888,+12023476676,5ZywiPOWkfO7Hrv9_jDZsw
NAVY-002,Station 4,"1101 4th St SW, Washington, DC, DC, 20024",Bar,Navy Yard / The Wharf,3.4,1331,$$,82,38.87732602117882,-77.01804611386905,+12024880987,U7jwUu3oJsqQNeRYwpDSvA
NAVY-003,Manna,"400 4th St SW, Washington, DC, DC, 20024",Coffee,Navy Yard / The Wharf,3.2,86,$$,82,38.88474,-77.016801,+12026021606,AKSMiflMFMMLk8hkGVCdHA
NAVY-004,Grounded,"1913 Martin Luther King Jr Ave SE, Washington, DC, DC, 20020",Cafe,Navy Yard / The Wharf,4.9,122,$,82,38.86714139653188,-76.98891818220386,+18446841211,8n8_4fPITWiq4o3kHcuHJA
NAVY-005,Atrium Cafe,"400 Virginia Ave Sw, Washington, DC, DC, 20024",Cafe,Navy Yard / The Wharf,3.8,114,$,82,38.8842769,-77.018194,+12028637590,hJ6YBH_fmwMX2v8O2ZfPbQ
PENN-027,Daikaya Ramen Shop,"705 6th St NW, Washington, DC, DC, 20001",Bar,Penn Quarter / Chinatown,4.1,3754,$$,82,38.89863630731707,-77.01972529711647,+12025891600,LofSIdn9SeuHs09WU1IdGw
PENN-028,Old Ebbitt Grill,"675 15th St NW, Washington, DC, DC, 20005",Bar,Penn Quarter / Chinatown,4.2,11565,$$,82,38.897954,-77.033194,+12023474800,iyBbcXtQSBfiwFQZwVBNaQ
PENN-029,City Tap House Penn Quarter,"901 9th St NW, Washington, DC, DC, 20001",Bar,Penn Quarter / Chinatown,3.9,1905,$$,82,38.90104645534967,-77.02379934110401,+12022902252,y_K6LdyE6unzkE_hMi1mfQ
PENN-030,Clyde's of Gallery Place,"707 7th St NW, Washington, DC, DC, 20001",Bar,Penn Quarter / Chinatown,3.6,1700,$$,82,38.89882369251372,-77.02172898081993,+12023493700,7ANR73f6X1FbbCNOd7eeLg
PENN-031,Seven Reasons,"931 H St NW, Washington, DC, DC, 20001",Bar,Penn Quarter / Chinatown,4.2,564,$$$,82,38.89996921804753,-77.0249762,+12024178563,z-5DstNTtgOdQIyqmzMXWg
PENN-032,barmini,"501 9th St NW, Washington, DC, DC, 20004",Bar,Penn Quarter / Chinatown,4.6,545,$$$$,82,38.8962604,-77.0238351,+12023934451,8H9pukTvR5scw_0aSYfS7w
PENN-033,Piccolina,"963 Palmer Alley NW, Washington, DC, DC, 20001",Cafe,Penn Quarter / Chinatown,3.9,134,,82,38.90037650731947,-77.02538197253803,+12028045713,fvV90u91QtIox7DhQI_d8w
GTWN-021,Clyde's of Georgetown,"3236 M St NW, Washington, DC, DC, 20007",Bar,Georgetown,3.9,1639,$$,82,38.90505104611061,-77.0640691,+12023339180,IMUlQlXTqgsWTUZLifuRZQ
GTWN-022,Fiola Mare,"3050 K St NW, Washington, DC, DC, 20007",Bar,Georgetown,4.1,1594,$$$$,82,38.901628831044,-77.0609554767212,+12025251402,4flZECEzjCfnQJqDvjHLIg
GTWN-023,Mele Bistro,"1723 Wilson Blvd, Arlington, VA, 22209",Bar,Georgetown,4.0,577,$$$,82,38.89419,-77.07889,+17035225222,Qc09Y-P78XX6n8cyL3Kf6w
GTWN-024,Guajillo Mexican Cuisine,"1727 Wilson Blvd, Arlington, VA, 22209",Bar,Georgetown,3.7,641,$$,82,38.8942326,-77.0791247,+17038070840,hPCBRWDKZSn8OFOJBwRgPQ
GTWN-025,Billy Hicks,"3277 M St NW, Washington, DC, DC, 20007",Coffee,Georgetown,3.8,84,,82,38.9053016170736,-77.0653851,+12027925757,gwq-QIb-gxNRVAVRuRhLAQ
GTWN-026,Gong Cha,"1650 Wilson Blvd, Arlington, VA, 22209",Coffee,Georgetown,4.0,81,,82,38.894035893621286,-77.07778531517343,+15712577918,r4RB8cEm7Ia4ArwNt74BsQ
GLOV-003,Barcelona Wine Bar Cathedral Heights,"3310 Wisconsin Ave NW, Washington, DC, DC, 20016",Wine Bar,Glover Park / Cathedral,4.1,446,$$$,82,38.93394,-77.07271,+12028004100,AYcKqLyT5wmDZ3CeKGcGZw
DUP-073,Madhatter,"1319 Connecticut Ave NW, Washington, DC, DC, 20036",Bar,Dupont Circle,3.2,1228,$$,81,38.907816,-77.042273,+12028331495,uIpjG4S3hXPIjAiN_FyDUQ
DUP-074,Dauphine’s,"1100 15th St NW, Washington, DC, DC, 20005",Bar,Dupont Circle,4.0,493,$$$,81,38.904461485588264,-77.03477124491688,+12027583785,H3nudsB6hHMqBhc_N6ki0A
DUP-075,Bar Charley,"1825 18th St NW, Washington, DC, DC, 20009",Bar,Dupont Circle,3.8,509,$$,81,38.9150879,-77.0415091,+12026272183,e4Bmfy3Ndwguqt-I3KkJyw
DUP-076,Sauf Haus Bier Hall & Garten,"1216 18th St NW, Washington, DC, DC, 20036",Restaurant,Dupont Circle,3.5,386,$$,81,38.9063416,-77.0420532,+12028449064,4Q8_zfk_QRu1mTcbkO2y1Q
DUP-077,Emissary Coffeehouse,"1726 20th St NW, Washington, DC, DC, 20009",Coffee,Dupont Circle,4.0,64,,81,38.913684,-77.045085,+12027485655,VULe5yDqaGSxlq5ObB1mBg
DUP-078,South Block,"1418 14th St NW, Washington, DC, DC, 20005",Coffee,Dupont Circle,4.4,57,$$,81,38.909488,-77.03226,+17034658423,aH-g4HhTCI2N1a0BO70O6g
DUP-079,Garden District,"1801 14th St NW, Washington, DC, DC, 20009",Restaurant,Dupont Circle,4.0,345,$$,81,38.91424,-77.03164,+12026952626,D61ROMXpzs2GQthLBIiJAQ
LOG-023,Ben's Next Door,"1211 U St NW, Washington, DC, DC, 20009",Bar,Logan Circle,3.6,1015,$$,81,38.917156781048455,-77.02868968514122,+12026678880,-XkoQgIL-wgHCkqRg9rhQQ
14TH-007,The Diner,"2453 18th St NW, Washington, DC, DC, 20009",Bar,14th Street Corridor,3.6,1189,$$,81,38.9218256,-77.0421914,+12022328800,KhQtUmA1DIpD1H1d2slV0Q
14TH-008,Johnny Pistolas,"2333 18th St NW, Washington, DC, DC, 20009",Bar,14th Street Corridor,3.6,493,$$,81,38.9204902648926,-77.0416259765625,+12028173255,PvRz-sn6GHaEvhmx_XcqMA
PETW-004,Little Food Studio,"849 Upshur St NW, Washington, DC, DC, 20011",Coffee,Petworth,4.9,65,,81,38.94204509936995,-77.02479976950916,+17712424037,-45B0X5tVfhT7sfj7kWRkw
HST-025,Bidwell Restaurant,"1309 5th St NE, Washington, DC, DC, 20002",Bar,H Street NE,3.3,471,$$,81,38.9087072267533,-76.9978680834174,+12025470172,clcFA5no1LXCjGQPV3zgdA
HST-026,The Big Board,"421 H St NE, Washington, DC, DC, 20002",Bar,H Street NE,3.7,428,$$,81,38.9000665,-76.999766,+12025433630,m2Fvct0Kv3laMaAZiXq1zg
HST-027,Masseria,"1340 4th St NE, Washington, DC, DC, 20002",Bar,H Street NE,3.7,464,$$$$,81,38.90968,-76.99915,+12026081330,nn7O7-EVZlxLjZtK3r174A
HST-028,Pie Shop,"1339 H St NE, Washington, DC, DC, 20002",Cafe,H Street NE,4.3,94,,81,38.89993,-76.98692,+12023987437,1TPKywUEvuWSoAgnuvfPRw
HST-029,The Hill Cafe,"101 15th St NE, Washington, DC, DC, 20002",Coffee,H Street NE,4.2,61,,81,38.8910737123269,-76.9833906957008,+12028906868,IZuqY-lQ24jAFlTKIrb3wg
HST-030,La Colombe,"201 M St NE, Washington, DC, DC, 20002",Coffee,H Street NE,4.2,65,$$,81,38.9053473599814,-77.0026682420707,+12028466833,J3_lb8sFpi7p6IVfeI51nw
CAPH-018,GATSBY,"1205 Half St SE, Washington, DC, DC, 20003",Bar,Capitol Hill / Barracks Row,3.9,443,$$,81,38.87476878535513,-77.0076960506588,+12028173005,hzH-GiMwxJcagyVIPjBSAg
CAPH-019,maman,"141 N St SE, Washington Dc, DC, 20303",Bakery,Capitol Hill / Barracks Row,4.1,97,,81,38.8746469,-77.004306,+17712333217,qqi74DdpVNWO7OCn8KbApw
CAPH-020,Toastique,"1331 4th St SE, Washington, DC, DC, 20003",Coffee,Capitol Hill / Barracks Row,4.3,65,,81,38.87436234806802,-77.00078154379253,+12024504119,oK6dAr-IJMK644Ve6DuPzg
NAVY-006,Solace Outpost,"71 Potomac Ave SE, Washington, DC, DC, 20003",Bar,Navy Yard / The Wharf,3.8,72,,81,38.87045189588523,-77.00714318220898,,hwbXsvJFJQ-UyJ_PMwWG0A
PENN-034,Denson Liquor Bar,"600 F St NW, Washington, DC, DC, 20004",Bar,Penn Quarter / Chinatown,4.3,457,$$$,81,38.897073,-77.020247,+12027583867,QevYUgOVTTMswhu-s7yxXQ
PENN-035,Karma Modern Indian,"611 I St NW, Washington, DC, DC, 20001",Bar,Penn Quarter / Chinatown,4.4,491,$$$,81,38.90108757172905,-77.02075927409354,+12028980393,lpPCrVVMQ6X8mvId_E_BGw
PENN-036,Coffee Republic - Metro Center,"601 13th St NW, Washington, DC, DC, 20005",Coffee,Penn Quarter / Chinatown,4.0,57,$$,81,38.89788882310091,-77.0293001,,8bM8JEQJY1cFQSmK9_pFxQ
GTWN-027,Martin's Tavern,"1264 Wisconsin Ave NW, Washington, DC, DC, 20007",Bar,Georgetown,3.8,1024,$$,81,38.9067499,-77.0632304,+12023337370,pav9wg2UFsyB-dvb7H0OpA
GTWN-028,The Tombs,"1226 36th St NW, Washington, DC, DC, 20007",Bar,Georgetown,3.8,480,$$,81,38.90602571513648,-77.07044349238734,+12023376668,tWA097y1merUslGmqDGFfA
GTWN-029,Café con Bagel,"1332 Wisconsin Ave NW, Washington, DC, DC, 20007",Coffee,Georgetown,4.4,63,$,81,38.907542,-77.063624,,mGJUrhjm623fwochRBGDkQ
GTWN-030,Blank Street,"3201 Prospect St NW, Washington, DC, DC, 20007",Coffee,Georgetown,3.9,63,,81,38.90612621691594,-77.0631441,,XE5_rWJ9DkDVIpRpkMSQCw
GTWN-031,For Five Coffee Roasters,"1735 N Lynn St, Arlington, VA, 22209",Coffee,Georgetown,3.2,59,,81,38.89573,-77.07047,,yp6N2IggM6Cnjdb0JlOiWg
GTWN-032,Casey's Coffee,"508 23rd St NW, Washington, DC, DC, 20037",Coffee,Georgetown,2.9,59,$,81,38.8961958,-77.0502649,+12022234762,0KGm7fgAm9gtwH543slFIQ
GLOV-004,Point Chaud Cafe & Crepes,"2300 Wisconsin Ave NW, Washington, DC, DC, 20007",Coffee,Glover Park / Cathedral,3.7,61,$$,81,38.920154,-77.071873,+12027582241,tKliv9bAvwpqn0wIH8bQcg
BROOK-001,Right Proper Brewing,"920 Girard St NE, Washington, DC, DC, 20017",Brewery,Brookland,4.5,74,$,81,38.926755,-76.993071,+12025265904,xZltYGZOrERhDm5PUnSYhQ
DUP-080,Balos Estiatorio,"1940 N St NW, Washington, DC, DC, 20036",Bar,Dupont Circle,3.8,370,$$$,80,38.907109434061105,-77.0446048,+12029521174,4jSnS2zOdkcUPhXfbWbr8A
DUP-081,Rakuya,"1900 Q St NW, Washington, DC, DC, 20009",Bar,Dupont Circle,3.8,867,$$,80,38.910965,-77.043642,+12022657258,Fcb1MorN4F7Wx21--P0WFg
DUP-082,Prego Again,"1617 17th St NW, Washington, DC, DC, 20009",Cafe,Dupont Circle,4.3,88,$,80,38.911772,-77.038202,+12023550311,oxWoUYQ_lGFwwUl0GWlh9w
DUP-083,The Green Bee Cafe,"1129 20th St NW, Washington, DC, DC, 20036",Cafe,Dupont Circle,4.3,84,$$,80,38.9045486450195,-77.0444946289062,+12024662676,rrPg5hWWZKHnxjrBSkTBqA
DUP-084,Blank Street Coffee,"2121 M St NW, Washington, DC, DC, 20037",Coffee,Dupont Circle,3.6,49,,80,38.905507,-77.04817,,PBTrlS5QBLkI_V4xY9bvZw
DUP-085,Capitol Grounds Cafe,"1010 17th St NW, Washington, DC, DC, 20036",Coffee,Dupont Circle,3.8,49,$,80,38.9028444,-77.0386349,+12028878231,Ne-GSvI_Ve7uS-KUa9Cfnw
DUP-086,Ahra Cafe,"2020 K St NW, Washington, DC, DC, 20006",Coffee,Dupont Circle,4.6,46,$,80,38.90213959927824,-77.04607422686655,+12027752472,7vppRa1skasRFPsp0pkTPA
DUP-087,Aslin Beer Company,"1740 14th St NW, Washington, DC, DC, 20009",Brewery,Dupont Circle,4.2,67,$$,80,38.91392,-77.03255,+12022901516,TZkxeP8dTUv32vI-XG2oDQ
LOG-024,Supra,"1205 11th Nw St, Washington, DC, DC, 20001",Bar,Logan Circle,4.1,825,$$$,80,38.906,-77.026725,+12027891205,MkoiKTmm38EIA5QYRam2yA
LOG-025,Zeppelin,"1544 9th St NW, Washington, DC, DC, 20001",Bar,Logan Circle,4.0,391,$$$,80,38.91095,-77.02424,+12025061068,0E-VYhreGPhBrugmXewyaw
LOG-026,Cafe U,"1017 U St NW, Washington, DC, DC, 20001",Coffee,Logan Circle,4.6,52,$,80,38.91721,-77.02653,+12022340409,cV7hW6djarQRVktRCYps1w
14TH-009,Unido,"908 W St NW, Washington, DC, DC, 20001",Coffee,14th Street Corridor,4.2,49,,80,38.91909706881854,-77.024541,,BM1cqBWyKhUITejS6LzSzA
SHAW-007,Mandu,"453 K St NW, Washington, DC, DC, 20001",Bar,Shaw,3.9,934,$$,80,38.9025165013075,-77.0182084994751,+12022896899,XMZHx2sVXKFQEbQMnu_NqA
ADAM-005,Yours Cafe,"2619 Connecticut Ave NW, Washington, DC, DC, 20008",Coffee,Adams Morgan,4.8,47,,80,38.92417,-77.0514,+12025164336,5nTHdGj-rjXNTf1P2nuETQ
ADAM-006,Petit Monde Bistro & Cafe,"2653 Connecticut Ave NW, Washington, DC, DC, 20008",Cafe,Adams Morgan,4.2,80,$$,80,38.9251,-77.05206,+12026294167,a2jA9s6VLrKgMTqBRmoz3Q
ADAM-007,DC Boba,"1403 Park Rd NW, Washington, DC, DC, 20010",Coffee,Adams Morgan,4.1,47,,80,38.93052,-77.03317,,wi0eT8YAiRxCfMT79qzprQ
COLH-011,Mezcalero,"3714 14th St NW, Washington, DC, DC, 20010",Bar,Columbia Heights,3.9,379,$$,80,38.93763,-77.03309,+12028032114,WamE_6fZJN6Y_hB9hKoODw
COLH-012,Rue Cafe,"3906 14th St NW, Washington, DC, DC, 20011",Coffee,Columbia Heights,4.9,55,,80,38.93887,-77.03306,+12027410410,Dx8lMWIZP3a0MZKg6_PQ9g
PETW-005,San Matteo,"819 Upshur St NW, Washington, DC, DC, 20011",Bar,Petworth,4.3,53,$$$,80,38.94214,-77.02416,+12025064007,wEAA_rk-I7ul4itcr-FB1g
HST-031,Stable DC,"1324 H St NE, Washington, DC, DC, 20002",Bar,H Street NE,4.7,363,$$,80,38.900399,-76.987348,+12027334604,ZZpshW3sxlMbQrn1bLhM1g
HST-032,Toastique,"325 Morse St NE, Washington, DC, DC, 20002",Coffee,H Street NE,4.5,53,,80,38.90819062627444,-77.0013415,+12026294425,eEfpZY4JbG0fiVXMUmGmqg
CAPH-021,Paraiso - Mexican Restaurant Taqueria & Mezcaleria,"1101 Pennsylvania Ave SE, Washington, DC, DC, 20003",Bar,Capitol Hill / Barracks Row,4.4,382,$$$,80,38.8823839,-76.9913398,+12025444368,IGUGzHj6vrd8QOk7YhtqkA
CAPH-022,Mission Navy Yard,"1221 Van St SE, Washington, DC, DC, 20003",Bar,Capitol Hill / Barracks Row,4.2,803,$$,80,38.87478560561505,-77.00838006233677,+12028107010,UQjCURpZsacBMYw7Cdhlkw
CAPH-023,Takoda Navy Yard,"1299 1st St SE, Washington, DC, DC, 20003",Bar,Capitol Hill / Barracks Row,3.8,87,,80,38.87482566661665,-77.00605653226376,+12027411001,DH-HxQ5rCpT6k0jpNRLJzA
CAPH-024,Compass Coffee,"1201 Half St SE, Washington, DC, DC, 20003",Coffee,Capitol Hill / Barracks Row,3.9,53,$$,80,38.87562745240107,-77.00768162534159,,AHb7DFNo34Ij8Ls5ovLolA
NAVY-007,Good Company Doughnuts & Cafe - SW,"1000 4th St SW, Washington, DC, DC, 20024",Cafe,Navy Yard / The Wharf,4.2,83,,80,38.87839,-77.01709,+12024791129,8JmnXq0CyFdLFbpfWH_0sA
PENN-037,Proper 21 - F Street,"1319 F St NW, Washington, DC, DC, 20004",Bar,Penn Quarter / Chinatown,3.9,917,$$,80,38.8976440429688,-77.0305938720703,+12028473674,32w5iRuwgv14ALBjTNSU1Q
PENN-038,Olio e Più,"699 14th St NW, Washington, DC, DC, 20005",Bar,Penn Quarter / Chinatown,4.4,357,$$$,80,38.89817,-77.03162,+17712084815,FG0he3bVGxv8u7JxC38h4g
GTWN-033,1789 Restaurant & Bar,"1226 36th St NW, Washington, DC, DC, 20007",Bar,Georgetown,4.2,836,$$$,80,38.9060275,-77.0704093,+12029651789,YvqJqlX5HtCtgFbd3KEV3w
GTWN-034,Thunder Burger & Bar,"3056 M St NW, Washington, DC, DC, 20007",Bar,Georgetown,3.5,914,$$,80,38.90494,-77.06063,+12023332888,pPxcmi6cpDRPuqBdb3dCjw
GTWN-035,Tony & Joe's Seafood Place,"3000 K St NW, Washington, DC, DC, 20007",Bar,Georgetown,3.0,823,$$$,80,38.90132283768626,-77.05967349464156,+12029444545,KOOTZMjLyGQzG-5uZbSASw
GTWN-036,Sfoglina Rosslyn,"1100 Wilson Blvd, Arlington, VA, 22209",Bar,Georgetown,3.9,341,$$$,80,38.894573,-77.070168,+12025251402,CW59Vd9CLC6atVHkK-aHUQ
GTWN-037,Barley Mac,"1600 Wilson Blvd, Arlington, VA, 22209",Bar,Georgetown,3.9,887,$$,80,38.89409662686991,-77.07736099510652,+15718003070,MO9YrznJMuQA0bAgOvzryw
GTWN-038,Bistrot Lepic & Wine Bar,"1736 Wisconsin Ave NW, Washington, DC, DC, 20007",Wine Bar,Georgetown,4.1,313,$$$,80,38.91458,-77.06741,+12023330111,sv6B_9Q45MA3pEH1YyInIg
GTWN-039,Gong Cha,"3279 M St NW, Washington, DC, DC, 20007",Coffee,Georgetown,4.2,46,$$,80,38.90518846265374,-77.0653360245369,+12025252657,2DXpvlhzJUJs9HXtZ0xg6g
NOMA-004,Simona cafe,"35 N St NE, Washington, DC, DC, 20002",Coffee,NoMa / Union Market,4.1,50,,80,38.90702,-77.0076,+12028173969,OXc3s2BP0hLoX_ju3ORuPQ
NOMA-005,Wunder Garten At Noma,"1101 First St NE, Washington, DC, DC, 20002",Restaurant,NoMa / Union Market,3.7,270,$$,80,38.90399857933707,-77.00541937364945,,7dQ9GZmaW9cxSlpwAGV_nw
DUP-088,Chef Geoff's West End,"2201 M St NW, Washington, DC, DC, 20037",Bar,Dupont Circle,4.4,738,$$,79,38.90548157256578,-77.04904170345223,+12025247815,5WX1benO3KDw9SYLnQqErQ
DUP-089,Rosemarino D Italia - Washington,"1714 Connecticut Ave NW, Washington, DC, DC, 20009",Bar,Dupont Circle,4.0,254,$$,79,38.91308,-77.04585,+12027331466,POD2A6V3QAVzeP638eIpUg
DUP-090,Nero,"1207 19th St Nw, Washington, DC, DC, 20036",Wine Bar,Dupont Circle,4.2,215,$$,79,38.90603,-77.043164,+12029646201,QXpcLRQT3Ir7-8OLuhBz0A
DUP-091,Grazie Nonna,"1100 15th St NW, Washington, DC, DC, 20005",Bar,Dupont Circle,4.2,722,$$,79,38.90401,-77.035,+12029890307,1p10IPU8QlojUHJWssXOZQ
DUP-092,Proper 21 - K Street,"2033 K St NW, Washington, DC, DC, 20006",Bar,Dupont Circle,4.0,248,$$,79,38.90296,-77.046282,+12024504485,hVCsh_MknDIYoBU9kscMZw
DUP-093,Quill,"1200 16th St NW, Washington, DC, DC, 20036",Bar,Dupont Circle,4.4,238,$$$,79,38.906037328402576,-77.03693768464976,+12024482300,PUPMoUeO7vyy75cxZmz8pw
DUP-094,The Pembroke,"1500 New Hampshire Ave NW, Washington, DC, DC, 20036",Wine Bar,Dupont Circle,3.5,227,$$,79,38.910547,-77.042907,+12024836000,-wHmDEAecE6l6dYR1CmYfA
DUP-095,Teddy & The Bully Bar,"1200 19th St NW, Washington, DC, DC, 20036",Bar,Dupont Circle,3.7,799,$$$,79,38.9061988381156,-77.0435760416641,+12028728700,G2zcMcoko2OBNh9-eVnpTg
DUP-096,GCDC Grilled Cheese Bar,"1730 Pennsylvania Ave NW, Washington, DC, DC, 20006",Bar,Dupont Circle,3.7,732,$$,79,38.8989606379126,-77.0403379797935,+12023934232,0Rhi0PXAFwobFXnRB8X15w
DUP-097,{petite} maman,"1220 19th St NW, Washington, DC, DC, 20036",Coffee,Dupont Circle,4.4,37,,79,38.90668416132162,-77.0438499846776,+12028859441,y1kgn5dY3rLxqI3q7kx35Q
DUP-098,Tea Mansion,"1627 Connecticut Ave NW, Washington, DC, DC, 20009",Coffee,Dupont Circle,3.3,40,$$$,79,38.91204,-77.0444,+12023288327,-9n2TK3EB2dgHoTnHee1vQ
DUP-099,For Five Coffee Roasters,"2001 Pennsylvania Ave, Washington, DC, DC, 20006",Coffee,Dupont Circle,3.5,37,,79,38.901666,-77.04523,+12029680380,zJk5pFEzvDvt3tD9uVrDlw
DUP-100,Blue Bottle Coffee - Midtown Center,"1100 15th St NW, Washington, DC, DC, 20005",Coffee,Dupont Circle,4.4,44,,79,38.904271349899886,-77.03477090826962,+15106533394,pAlhiCHkrqll97LSC7CtMA
DUP-101,The Coffee Bean & Tea Leaf,"1919 Connecticut Ave NW, Washington, DC, DC, 20009",Coffee,Dupont Circle,3.7,44,$$,79,38.916639797955,-77.0454668998718,+12024833000,4NuI2frKzXw0SJtn7fsXjw
DUP-102,Fabulous Market,"2424 Pennsylvania Ave NW, Washington, DC, DC, 20037",Coffee,Dupont Circle,3.5,39,$$,79,38.9029,-77.052322,+12022930049,x53zbM7-NORP4AAVU9aAVQ
DUP-103,Orange Spoon Cafe,"1255 23rd St NW, Washington, DC, DC, 20037",Cafe,Dupont Circle,3.4,69,$,79,38.9064,-77.04979,+12022931607,wKURQJMgsaBPnmm2OqgiQw
LOG-027,Causa Amazonia,"920 Blagden Aly NW, Washington, DC, DC, 20001",Bar,Logan Circle,4.4,325,,79,38.90691,-77.02466,+12026293942,LrRkGn4VYOaHEQsE8BQMag
LOG-028,San Lorenzo,"1316 9th St NW, Washington, DC, DC, 20001",Wine Bar,Logan Circle,4.2,222,,79,38.90783,-77.02433,+12025888954,ahV0MfSTxYoQg-1yQNON2w
LOG-029,Service Bar,"928 U St NW, Washington, DC, DC, 20001",Bar,Logan Circle,4.3,330,$$,79,38.91683,-77.02501,+12024627232,ZbVNADWUpTAjbB79qeXtwg
LOG-030,Amsterdam Cafe & Lounge,"1208 U St NW, Washington, DC, DC, 20009",Bar,Logan Circle,2.8,66,$$,79,38.9167366027832,-77.0284957885742,+12029866800,ysUisOAkrOvHavWh90cnBQ
LOG-031,For Five Coffee Roasters,"901 K St NW, Washington, DC, DC, 20001",Coffee,Logan Circle,4.0,42,$$,79,38.90278845203196,-77.0254809265833,,9XarsINQKLLJZ9ycVx6uGw
14TH-010,Lapop,"1847 Columbia Rd NW, Washington, DC, DC, 20000",Bar,14th Street Corridor,4.1,43,$$,79,38.9213293230941,-77.0438345815766,+12029996216,rdoFOY-u_CjcFaheVfVQ9Q
14TH-011,9:30 Club,"815 V St NW, Washington, DC, DC, 20001",Bar,14th Street Corridor,3.9,787,$$,79,38.9178851722944,-77.023665130059,+12022650930,Y1lu8rQMqKTEyD5vOIX9NA
14TH-012,Little Hat Coffee,"2400 14th St NW, Washington, DC, DC, 20009",Coffee,14th Street Corridor,4.8,45,,79,38.92076,-77.03209,,f6SnScIxTjr5ggd32ZfL5A
SHAW-008,Bar Chinois,"455 I St NW, Washington, DC, DC, 20001",Bar,Shaw,4.2,298,$$,79,38.90139,-77.01791,+12028516250,98suXZ48MReYguYCrgf49Q
ADAM-008,New Heights Restaurant,"2317 Calvert St NW, Washington, DC, DC, 20008",Bar,Adams Morgan,3.7,287,$$$,79,38.92372,-77.05225,+12022902692,w8DCqIe8M9-H68yy7PyLqw
HST-033,Daru,"1451 Maryland Ave NE, Washington, DC, DC, 20002",Bar,H Street NE,4.4,294,$$,79,38.89967919000323,-76.98389500861066,+12023881848,YZgiOgnPbz1818eUAhK0yQ
HST-034,Pastis,"1323 4th St NE, Washington, DC, DC, 20002",Bar,H Street NE,4.2,235,$$$,79,38.90956,-76.998449,+12024711200,RYv15VBwAA4Wupk_kxq_sA
HST-035,Buffalo & Bergen - Union Market,"1309 5th St NE, Washington, DC, DC, 20002",Bar,H Street NE,3.5,315,$$,79,38.9084154631247,-76.9974020043518,+12025432549,Qdpz9RZzqHLcr_vYAH7EDQ
HST-036,Quill & Crumb,"201 E Capitol St SE, Washington, DC, DC, 20003",Coffee,H Street NE,4.2,38,,79,38.88945940137399,-77.0027363,,bTvV4446DeJOx4X-LxCTQg
CAPH-025,Butterworth’s,"319 Pennsylvania Ave SE, Washington, DC, DC, 20003",Bar,Capitol Hill / Barracks Row,3.8,45,,79,38.886438,-77.001407,,tMOQMkdcmecz_1UdFrP2Jw
CAPH-026,Bammy's Modern Caribbean,"301 Water St SE, Washington, DC, DC, 20003",Bar,Capitol Hill / Barracks Row,4.0,276,$$,79,38.87334340245771,-77.00156879615906,+12022041140,DXyns0KKVckxWPS-eOhETQ
NAVY-008,Dacha Beer Garden Navy Yard,"79 Potomac Ave SE, Washington, DC, DC, 20003",Restaurant,Navy Yard / The Wharf,3.5,221,$$,79,38.87165084531697,-77.00614037394614,+12029193800,meBdsnJ6U9jwfkXrneONVw
PENN-039,Yard House,"812 7th St NW, Washington, DC, DC, 20001",Bar,Penn Quarter / Chinatown,3.8,693,$$,79,38.90069860000002,-77.02212887055224,+12029620174,hBw_KmUNbBS2pxblNl813A
PENN-040,Puttery,"800 F St NW, Washington, DC, DC, 20004",Bar,Penn Quarter / Chinatown,3.8,294,$$,79,38.896891,-77.023434,+12029894300,XfFmEglPCHr8GlX84aNgxA
PENN-041,Asia Nine Bar & Lounge,"915 E St NW, Washington, DC, DC, 20004",Bar,Penn Quarter / Chinatown,3.4,647,$$,79,38.896481,-77.024963,+12026294355,Gz66w0ApZPnzuy99TQibTw
PENN-042,Rania,"427 11th St NW, Washington, DC, DC, 20004",Bar,Penn Quarter / Chinatown,4.4,249,$$$$,79,38.89577,-77.02681,+12028046434,koDCY-nnzK57VX6Rsiojpw
PENN-043,Sax Restaurant & Lounge,"734 11th St NW, Washington, DC, DC, 20001",Bar,Penn Quarter / Chinatown,3.4,746,$$$,79,38.8993568,-77.0272321,+12027370101,ipvqypoCjhWns5ZGTeFf5w
PENN-044,Fresh Baguette,"575 7th St NW, Washington, DC, DC, 20004",Coffee,Penn Quarter / Chinatown,3.8,37,,79,38.897051868733975,-77.02149087055167,,INOTBBvvXbkqrm5Dmona9A
PENN-045,Good Doughnuts & Cafe - Penn Quarter,"555 Pennsylvania Ave NW, Washington, DC, DC, 20001",Coffee,Penn Quarter / Chinatown,4.5,42,,79,38.89288011935635,-77.01889053312149,+12025164797,aIAtL-tHLx1_557CSONXiw
PENN-046,Bluestone Lane Metro Center,"600 13th St NW, Washington, DC, DC, 20005",Coffee,Penn Quarter / Chinatown,3.2,41,,79,38.898061,-77.029873,+17183746858,Cn_bLGVymaYGw_SMZSvaNg
GTWN-040,Cafe Milano,"3251 Prospect St NW, Washington, DC, DC, 20007",Bar,Georgetown,3.3,679,$$$,79,38.90617131873295,-77.06367603711718,+12023336183,IahWJkql-VuJXlXfLFRccw
GTWN-041,Tatte Bakery & Cafe,"1545 Wisconsin Ave NW, Washington, DC, DC, 20007",Coffee,Georgetown,3.8,41,,79,38.91032044837314,-77.0646635667497,+12028496822,FqugFOi2zDaEKD90AviWPw
BROOK-002,The Public Option,"1601 Rhode Island Ave NE, Washington, DC, DC, 20018",Brewery,Brookland,4.7,46,$$,79,38.9260499,-76.98165,+12026363795,p_g-v-XagjMIllWVeJ01ug
NOMA-006,Lost Generation Brewing,"327 S St NE, Washington, DC, DC, 20002",Brewery,NoMa / Union Market,4.6,49,$$,79,38.91392100357749,-77.00090206282734,+12026218525,xZmGWKN0AxBHBxMnoOF3CQ
DUP-104,Sampannee Thai,"2122 P St NW, Washington, DC, DC, 20037",Bar,Dupont Circle,4.3,227,$$,78,38.909403,-77.04762,+12028095004,7y-L0iOBb536SevW-EemEg
DUP-105,Sixty Vines,"2200 Pennsylvania Ave NW, Washington, DC, DC, 20037",Wine Bar,Dupont Circle,4.4,201,$$$,78,38.90185549242839,-77.0493245,+12025210110,UmAx3tQsZikQcXq7RHQPNg
DUP-106,1831 Bar & Lounge,"1831 M St NW, Washington, DC, DC, 20036",Bar,Dupont Circle,3.9,249,$$,78,38.9058362,-77.04300024331941,+12022231831,vqnX0vDwGHNOV01T5RwgMw
DUP-107,Imperfecto,"1124 23rd St NW, Washington, DC, DC, 20037",Bar,Dupont Circle,3.9,224,$$$$,78,38.90432,-77.05033,+12029641012,Zp3e71HUjROg6o6JM5lGwQ
DUP-108,The Green Zone,"2226 18th St NW, Washington, DC, DC, 20009",Bar,Dupont Circle,4.2,223,$$,78,38.91947,-77.04189,+12025799606,cirjkfJzgOfgV6Gk6ZAQGA
DUP-109,P.J. Clarke's,"1600 K St NW, Washington, DC, DC, 20006",Bar,Dupont Circle,3.2,589,$$,78,38.9021571,-77.0369613,+12024636610,7oA1GHEKV6msUK0nRBMx9g
DUP-110,The Mirror,"1413 K St NW, Washington, DC, DC, 20005",Bar,Dupont Circle,4.1,250,$$,78,38.90291,-77.03268,,vgY0i4vMpU2mqoTRmqv6vA
DUP-111,Black Jack,"1612 14th St Nw, Washington, DC, DC, 20009",Bar,Dupont Circle,3.8,256,$$,78,38.9116189,-77.03229769508916,+12023191612,S-TZpMkpf0_gr0GBfXP2cA
DUP-112,Left Door,"1345 S St NW, Washington, DC, DC, 20009",Bar,Dupont Circle,3.7,234,$$$,78,38.91428,-77.03148,+12027348576,dNwB1UVJ5LTs678uLd6TYg
DUP-113,Sette Osteria - Washington,"1634 14th St NW, Washington, DC, DC, 20009",Bar,Dupont Circle,3.5,521,$$,78,38.912445800000256,-77.03219597055471,+12028043339,nEiA8Ra1BZUMuLSIYAKhQg
DUP-114,Le Pain Quotidien,"2000 P St NW, Washington, DC, DC, 20036",Coffee,Dupont Circle,3.1,477,$$,78,38.90980417129318,-77.04515168248005,+12024599176,T3YpAt7-f2GdZE9MubatCw
DUP-115,​Gen Cafe,"1900 Connecticut Ave NW, Washington, DC, DC, 20009",Coffee,Dupont Circle,3.4,29,$$,78,38.91605747490091,-77.04665339814557,+12023329300,12Osi4zV4YKnrjwR0cVVrw
DUP-116,Coin Des Poetes,"1800 Wyoming Ave NW, Washington, DC, DC, 20009",Coffee,Dupont Circle,3.4,30,,78,38.918603,-77.0419,+12025779907,7Jhn9e8aO2Phj-Zq356sXA
DUP-117,Tatte Bakery & Cafe,"1400 W St NW, Washington, DC, DC, 20009",Coffee,Dupont Circle,3.4,34,,78,38.919,-77.03248,+12025975418,1mMNfdwIpFddUrr-W7VpHA
DUP-118,Life Alive Organic Cafe,"2301 M St NW, Washington, DC, DC, 20037",Cafe,Dupont Circle,4.4,55,,78,38.90565426968059,-77.05039029999999,+12028044226,NcZ1I16xbKqxONCbjtFJdw
LOG-032,Immigrant Food,"925 13th St NW, Washington, DC, DC, 20005",Bar,Logan Circle,4.3,265,$$,78,38.90228434195082,-77.02930733940048,+12028880760,PP8CoE92DEiDhcilGSvDBA
LOG-033,Calico,"50 Blagden Aly NW, Washington, DC, DC, 20001",Bar,Logan Circle,3.8,222,$$,78,38.9064079503045,-77.0254480491635,+12027910134,Etrio5WJvHqMpiMOglkRBA
LOG-034,The Delegate,"901 L St NW, Washington, DC, DC, 20001",Bar,Logan Circle,3.7,256,$$,78,38.90438,-77.02442,+12025676645,zLPkLfVV_hPddyiwKOXBog
LOG-035,Morris American Bar,"1020 7th St NW, Washington, DC, DC, 20001",Bar,Logan Circle,4.3,241,$$,78,38.903683,-77.022099,+12027592001,ZcWBtgaAA2hNd4O9mYIW7Q
LOG-036,Electric Cool-Aid,"512 Rhode Island Ave NW, Washington, DC, DC, 20001",Bar,Logan Circle,4.3,49,,78,38.91314712632733,-77.01955469860009,+12029219021,z5b0q706qhzQrLg3mJG9wA
LOG-037,Emmy French Corner,"1250 U St NW, Washington, DC, DC, 20009",Cafe,Logan Circle,3.9,54,,78,38.9168884394458,-77.02936041232024,+12025065270,qOGDN25erCi4le35Uv8ZLQ
14TH-013,Tiki On 18th,"2411 18th St NW, Washington, DC, DC, 20009",Bar,14th Street Corridor,4.1,248,$$,78,38.9208884,-77.0417215,+12028461952,XsJeVrssUsL-0U5QeN4o6Q
SHAW-009,la Betty,"420 K St NW, Washington, DC, DC, 20001",Wine Bar,Shaw,3.4,29,,78,38.90222,-77.0169,,1OrRgSPgEdHK0PsTO2cdyA
SHAW-010,DC Central Kitchen,"2121 First St SW, Washington, DC, DC, 20024",Cafe,Shaw,4.7,47,,78,38.86372703086131,-77.0121790000003,+12022340707,-qxUtUNA13feqgQe5MtfCA
COLH-013,Queen's English,"3410 11th St NW, Washington, DC, DC, 20010",Bar,Columbia Heights,4.1,253,,78,38.93213,-77.02859,+12026181213,7zZsNIWb2TwRT1dRz0tECw
COLH-014,St Vincent Wine,"3212 Georgia Ave NW, Washington, DC, DC, 20010",Bar,Columbia Heights,3.9,186,$$,78,38.93044886354697,-77.0237689,+12024139763,MXJsjtNwC4h1g2UYfMCxHg
HST-037,Cotton & Reed,"1330 5th St NE, Washington, DC, DC, 20002",Bar,H Street NE,4.3,241,$$,78,38.9094889860117,-76.9977027922869,+12025442805,sO4YutRieZtw0qkycIyRuQ
HST-038,Sweet Lemon Cafe,"201 Massachusetts Ave NE, Washington, DC, DC, 20002",Cafe,H Street NE,4.7,51,,78,38.894616627940145,-77.0033396446212,,Y-_MVxGTAHke6YGMHE8Jlg
HST-039,Lost Sock Roasters,"1100 4th St NE, Washington, DC, DC, 20002",Coffee,H Street NE,4.5,33,,78,38.9038828386594,-77.00080977277341,,Jcl6daKpPlKrVstejkLsEw
CAPH-027,The Duck & The Peach,"300 7th St SE, Washington, DC, DC, 20003",Bar,Capitol Hill / Barracks Row,4.1,241,,78,38.88576436932781,-76.995919,+12024311913,61NSL5h7FGFmyYLp87RnCw
CAPH-028,as you are.,"500 8th St SE, Washington, DC, DC, 20003",Bar,Capitol Hill / Barracks Row,4.5,48,$$,78,38.88257,-76.99471,,dM3hUvzux_fK0YV6kJx4aQ
CAPH-029,The Brig Beergarden,"1007 8th St SE, Washington, DC, DC, 20003",Restaurant,Capitol Hill / Barracks Row,3.9,178,$$,78,38.87782,-76.99518,+12026751000,B2x9jRZvj-vdcFZVDwnyaA
CAPH-030,Llamabar,"1 M St SE, Washington, DC, DC, 20003",Cafe,Capitol Hill / Barracks Row,4.2,53,$$,78,38.87629783254231,-77.0087643,+12022040706,wkgm8WqmSMJC2oPvpbFpzQ
CAPH-031,Cameo,"1401 Pennsylvania Ave SE, Washington, DC, DC, 20003",Coffee,Capitol Hill / Barracks Row,4.1,35,,78,38.87989483,-76.98515383,+12025065595,X9ghOpBeJ95-3QMj7xmLmw
CAPH-032,Atlas Brew Works,"1201 Half St SE, Washington, DC, DC, 20003",Brewery,Capitol Hill / Barracks Row,3.7,40,,78,38.875318,-77.007924,+12025252001,FFrBmsq2Q0Y8ynmPCNRnoQ
NAVY-009,Capital One Café,"1203 Marion Barry Ave SE, Washington, DC, DC, 20020",Coffee,Navy Yard / The Wharf,4.4,29,,78,38.86722645346628,-76.98846304662705,+12024816197,NUcLIHvKXLoMKFlIe5NrdA
NAVY-010,Casey's Coffee & Sandwiches,"355 E St SW, Washington, DC, DC, 20024",Coffee,Navy Yard / The Wharf,3.1,30,$$,78,38.8834401,-77.0160269,+12024888800,hl8rsMRGjnRdc8VshhDJPg
PENN-047,Moon Rabbit,"927 F St NW, Washington, DC, DC, 20004",Bar,Penn Quarter / Chinatown,4.4,263,,78,38.897541372622534,-77.02524618922448,+12025251446,S6o2oYgrMiqzv4pZxuAIzA
PENN-048,Silver Lyan,"900 F St NW, Washington, DC, DC, 20004",Bar,Penn Quarter / Chinatown,4.4,216,$$$,78,38.89708534,-77.02443253,+12027882799,BSvoWbhch_AJBRPco1pGmQ
GTWN-042,Flor,"1220 31st St NW, Washington, DC, DC, 20007",Coffee,Georgetown,4.1,32,,78,38.90578892345938,-77.0613687,+12028194926,Ka1eFrfduPiWKuO9YR-gnw
GTWN-043,Spot of Tea - Georgetown,"3210 Grace St NW, Washington, DC, DC, 20007",Coffee,Georgetown,4.6,31,,78,38.9038,-77.06351,+18332649009,1AH7TzneDfFJmCLlmzcQnQ
BROOK-003,Menomale,"2711 12th St NE, Washington, DC, DC, 20018",Bar,Brookland,4.2,629,$$,78,38.924859,-76.990149,+12022483946,5oL1yc-UdQW23kpQvIcidQ
BROOK-004,Cool Coffee,"3901 12th St NE, Washington, DC, DC, 20017",Coffee,Brookland,4.8,31,,78,38.93740867045006,-76.99038404971361,,X10HlZuSDXOQxiQJQyqFIQ
BROOK-005,City-State Brewing,"705 Edgewood St NE, Washington, DC, DC, 20017",Brewery,Brookland,4.0,40,,78,38.923438,-76.99604,,JI8JNjQV71lT16kA9Yu_Bg
DUP-119,Doyle,"1500 New Hampshire Ave NW, Washington, DC, DC, 20036",Bar,Dupont Circle,3.4,423,$$,77,38.9103640946548,-77.04308546850392,+12024484301,t4Ph3L-FOGz8ICy8ZY_Ipw
DUP-120,Duke's Grocery,"2000 Pennsylvania Ave NW, Washington, DC, DC, 20006",Bar,Dupont Circle,3.9,422,$$,77,38.9005159886944,-77.0460143246063,+12027333967,NxGHwn3HYqqXypSs6Ix_kw
DUP-121,Off The Record,"800 16th St NW, Washington, DC, DC, 20006",Bar,Dupont Circle,4.1,440,$$$,77,38.90051,-77.037,+12026386600,PXKxSlP82wsqvxnkP0x6jw
DUP-122,Stoney's,"1433 P St NW, Washington, DC, DC, 20005",Bar,Dupont Circle,3.7,498,$$,77,38.9098666264388,-77.0333090715806,+12022341818,QEA9zZUhD-gFvH7aT-yKxg
DUP-123,Black Cat,"1811 14th St NW, Washington, DC, DC, 20009",Bar,Dupont Circle,3.7,428,$$,77,38.91458,-77.03155,+12026674490,UcBRxkFrdETuukkjpFL-Jw
DUP-124,Dupont Coffee Collective,"1909 Q St NW, Washington, DC, DC, 20009",Coffee,Dupont Circle,4.1,25,,77,38.911276672427505,-77.04377339999999,,X_uV_V1SwuI5vEa9rwfBBg
DUP-125,The Newsroom,"1728 Connecticut Ave NW, Washington, DC, DC, 20009",Coffee,Dupont Circle,4.2,26,$,77,38.9135703,-77.0459966,+12023321489,yBv1bCEt7MMaplh3sM9RuA
LOG-038,Mariscos 1133,"1133 11th St NW, Washington, DC, DC, 20001",Bar,Logan Circle,4.1,187,,77,38.90553,-77.02681,+12028364107,i_Tapct78m7S2WKh3hIZuA
LOG-039,Maxwell Park,"1336 9th St NW, Washington, DC, DC, 20001",Wine Bar,Logan Circle,4.4,143,$$,77,38.90843,-77.02425,,CgfbnsJgdqoBibqoCsy7RQ
LOG-040,STK Steakhouse,"901 Massachusetts Ave NW, Washington, DC, DC, 20001",Bar,Logan Circle,3.8,439,,77,38.903694,-77.024864,+12023013791,a0F5cgLPNoNqql7JxqbFlQ
LOG-041,Lost & Found,"1240 9th St NW, Washington, DC, DC, 20001",Bar,Logan Circle,3.6,191,$$,77,38.90677,-77.02428,+12024506052,LwemqJpBpqWKrxe7xfJ4Bw
LOG-042,Lulu’s Winegarden,"1940 11th St NW, Washington, DC, DC, 20001",Bar,Logan Circle,4.1,152,,77,38.9168158183,-77.0272386589,+12023329463,gT-A4MBZdUNsyoIn-nlsJA
LOG-043,801 Restaurant & Bar,"801 Florida Ave NW, Washington, DC, DC, 20001",Bar,Logan Circle,4.0,481,$$,77,38.91691,-77.02307,+12023320207,9D2rdWVFMkB5ZlQuBJv7Tg
LOG-044,Fossette Focacceria,"1250 9th St NW, Washington, DC, DC, 20001",Cafe,Logan Circle,4.4,43,,77,38.906849138584455,-77.02413626256563,+12022407808,fo8hkSIfiKJ19atn7x_AVw
14TH-014,Bul,"2431 18th St NW, Washington, DC, DC, 20009",Bar,14th Street Corridor,3.8,461,$$,77,38.921332,-77.041935,+12022091461,zV7N3jTExMm2ssi7bmrRGw
14TH-015,CODE RED,"2440 18th St NW, Washington, DC, DC, 20009",Bar,14th Street Corridor,4.6,194,$$,77,38.92168,-77.0427,+12022650590,HtIHL6-uWLK9qiUhrj6OLQ
14TH-016,Taqueria Al Lado,"1792 Columbia Rd NW, Washington, DC, DC, 20009",Bar,14th Street Corridor,4.0,189,$$,77,38.9227,-77.04226,+12024810048,hl2X928eqIctZ1fTsKOsVw
14TH-017,Roofers Union,"2446 18th St NW, Washington, DC, DC, 20009",Bar,14th Street Corridor,3.4,505,$$,77,38.92184,-77.0427,+12022327663,BbCcq2ytMynvyHRl799hNA
SHAW-011,Cucina Morini,"901 4th St NW, Washington, DC, DC, 20001",Wine Bar,Shaw,4.5,169,,77,38.901685,-77.015875,+12026976888,XJEsaQYTqV6UuyIYpuUaQQ
ADAM-009,Beau Thai - Mount Pleasant,"3162 Mt Pleasant St, Washington, DC, DC, 20010",Bar,Adams Morgan,4.0,511,$$,77,38.9303762,-77.0380164,+12024505317,GKXEL7k-AWl_Qi5VASVteA
COLH-015,Qui Qui DC,"3227 Georgia Ave NW, Washington, DC, DC, 20010",Bar,Columbia Heights,4.2,177,$$,77,38.93109466095107,-77.02339657393063,+12026423179,0L25xRFRdb24j7TYXQkCKQ
COLH-016,Pan Lourdes Bakery & Coffee Shop,"3407 14th St NW, Washington, DC, DC, 20010",Coffee,Columbia Heights,3.2,28,$,77,38.93173,-77.03237,,UqxDEIZfr3icOCNHsMianQ
HST-040,Henceforth,"1335 H St NE, Washington, DC, DC, 20002",Brewery,H Street NE,4.6,29,,77,38.90009154580713,-76.9870655,,DJlgrZ9iavgHoEhch2XBdg
HST-041,La' Shukran,"417 Morse St NE, Washington, DC, DC, 20002",Bar,H Street NE,4.6,138,,77,38.9073041645994,-76.99956480762728,,kvhC0CAN5aqVhModvJYj6A
HST-042,Crooked Run Fermentation,"550 Morse St NE, Washington, DC, DC, 20002",Brewery,H Street NE,4.1,35,,77,38.90721504814073,-76.9978579,+12023559010,mZdwZSGrkwv-vXFW2Riivg
CAPH-033,La Famosa,"1300 4th St SE, Washington, DC, DC, 20003",Bar,Capitol Hill / Barracks Row,4.3,460,$$,77,38.87476196056468,-77.00001389556692,+12029219882,DYPWaQwhUNjxiigENabZEQ
CAPH-034,Lola's A Neighborhood Bar,"711 8th St SE, Washington, DC, DC, 20003",Bar,Capitol Hill / Barracks Row,3.3,183,$$,77,38.88083,-76.9953,+12028473523,t75h7EFhtMc7HjQxaG6OjQ
CAPH-035,Le Pain Quotidien,"660 Pennsylvania Ave SE, Washington, DC, DC, 20003",Coffee,Capitol Hill / Barracks Row,2.8,377,$$,77,38.8850905,-76.9964626,+12024599147,_bYDGDbbjHHM0q7LhK8xZw
PENN-049,Free State,"501B G St, Washington, DC, DC, 20003",Bar,Penn Quarter / Chinatown,4.3,145,$$,77,38.898453,-77.019255,+12026017216,jlpFCEPbjsxses7wD5svoQ
PENN-050,Ultrabar,"911 F St NW, Washington, DC, DC, 20004",Bar,Penn Quarter / Chinatown,2.2,440,$$$,77,38.89764,-77.02462,+12028399089,lhVqE113IzsCJLssqy_cgw
PENN-051,Rocket Bar,"714 7th St NW, Washington, DC, DC, 20001",Bar,Penn Quarter / Chinatown,3.3,503,$$,77,38.8990020751953,-77.0222244262695,+12026287665,K4YYuUAjGKuIsPRQCV1JSQ
PENN-052,Le Pain Quotidien,"975 F St NW, Washington, DC, DC, 20004",Coffee,Penn Quarter / Chinatown,3.0,378,$$,77,38.8975787994542,-77.0258141865081,+12024994123,0hG5jP7xAkF5hmz90loJGA
PENN-053,Bluestone Lane,"1300 Pennsylvania Ave, Washington, DC, DC, 20004",Coffee,Penn Quarter / Chinatown,3.1,28,,77,38.894307822223645,-77.02973926568083,+17183746858,JC921UPWEoVgUACshHVd4A
PENN-054,Forever Young Cafe,"1300 Pennsylvania Ave NW, Washington, DC, DC, 20004",Coffee,Penn Quarter / Chinatown,2.6,24,,77,38.89538337899241,-77.0306072850415,+12022890361,YEOB6ju-3wCXXjtjV1t0-g
PENN-055,National Museum Of Natural History Cafe,"1000 Madison Dr NW, Washington, DC, DC, 20560",Cafe,Penn Quarter / Chinatown,2.4,44,$,77,38.8918956,-77.0259629,,opcDIZRdlYQaPakzVr_kqQ
GTWN-044,1310 Kitchen and Bar,"1310 Wisconsin Ave NW, Washington, DC, DC, 20007",Bar,Georgetown,3.9,175,$$,77,38.90721,-77.06356,+12023338232,vmwPSOZZDAmGELwrjjWYlg
GTWN-045,The Escape Game DC - Georgetown,"3345 M St NW, Washington, DC, DC, 20007",Bar,Georgetown,4.5,512,$$,77,38.9050974,-77.0676363,+12024103210,cD3IvzzaZzPu99LnFvYRiQ
GTWN-046,Guerra Steakhouse,"1725 Wilson Blvd, Arlington, VA, 22209",Wine Bar,Georgetown,4.6,158,,77,38.89417,-77.07892,+15714316726,1KEbtX5Cb6zcG9ebdXAlDw
GLOV-005,Lavazza,"2302 Wisconsin Ave NW, Washington, DC, DC, 20007",Coffee,Glover Park / Cathedral,3.8,26,,77,38.9202,-77.07177,,NcmjENoGfQFPuBJBxVhR1g
NOMA-007,CR NoMa,"140 M St NE, Washington, DC, DC, 20002",Bar,NoMa / Union Market,4.4,199,$$,77,38.90591,-77.00473,+12029623947,7lhAE3IcXTF-Ph--Zrlb5A
DUP-126,The Pembroke,"1500 New Hampshire Ave NW, Washington, DC, DC, 20036",Bar,Dupont Circle,4.1,385,,76,38.910642,-77.043106,+12024836000,5ULWeKteSoPndXLb_zNJRA
DUP-127,Boogy and Peel,"1 Dupont Cir NW, Washington, DC, DC, 20036",Bar,Dupont Circle,4.5,122,$$,76,38.90880636436599,-77.04458572502371,,Hqtv3LyD2uvNfksmUNisSA
DUP-128,The Admiral,"1 Dupont Cir NW, Washington, DC, DC, 20036",Bar,Dupont Circle,4.3,413,$$,76,38.90908,-77.0445,+12025066696,aZUrwzRbkkNPm8_JDWXkDQ
DUP-129,Amparo Fondita,"2002 P St NW, Washington, DC, DC, 20036",Bar,Dupont Circle,4.2,112,,76,38.9095,-77.04521,+12026218166,EXD5us692G6zo7K6TP-gEg
DUP-130,Casta's Rum Bar,"1121 New Hampshire Ave NW, Washington, DC, DC, 20037",Bar,Dupont Circle,3.8,381,$$,76,38.904351450522064,-77.04806494933628,+12028040073,CAo5dp4mtGuieLdejP1P3g
DUP-131,Rewind,"1219 Connecticut Ave NW, Washington, DC, DC, 20036",Bar,Dupont Circle,3.2,150,,76,38.90655,-77.04114,+12028467883,aRdjUl1CQpkeSd8YnSo0Fg
DUP-132,Jane Jane,"1705 14th St NW, Washington, DC, DC, 20009",Bar,Dupont Circle,4.4,165,$$,76,38.912816950840984,-77.0317396670805,+12024812166,0vtyqioa6ABoejs9Zg8n3Q
DUP-133,Takara 14,"1326 14th St NW, Washington, DC, DC, 20005",Bar,Dupont Circle,4.1,166,$$$,76,38.90749014417838,-77.03207563608885,+12025078973,eMKMU3I4YG3SlptAnou6KA
DUP-134,The Continent DC,"1110 Vermont Ave NW, Washington, DC, DC, 20005",Bar,Dupont Circle,4.1,163,$$$,76,38.904325,-77.033255,+12029781320,sWMDLbSrU1og9h7g2lazKg
DUP-135,Kingbird,"2650 Virginia Ave NW, Washington, DC, DC, 20037",Bar,Dupont Circle,3.6,354,$$$,76,38.89934,-77.05582,+18446171972,JmSYUnSD5GSRf6ajj4MjkQ
DUP-136,Etto,"1541 14th St NW, Washington, DC, DC, 20005",Bar,Dupont Circle,3.8,370,$$,76,38.910967,-77.031618,+12022320920,M0q2i6b95nE3bJgErwYhmQ
DUP-137,Au Lait Cafe,"1608 17th St NW, Washington, DC, DC, 20009",Cafe,Dupont Circle,4.7,34,,76,38.91148,-77.038747,+12028887439,UXoNHhBlRugb-Jq6CuNDeA
DUP-138,Bon Beke's Bakehouse and Grill,"1718 Connecticut Ave NW, Washington, DC, DC, 20009",Coffee,Dupont Circle,4.8,19,,76,38.91320032570702,-77.04596867980577,,fj1Y55mfBznAunIwxxjkWw
DUP-139,Le Pain Quotidien,"800 17th St NW, Washington, DC, DC, 20006",Coffee,Dupont Circle,3.5,271,$$,76,38.9009286203681,-77.0397214,+12026880341,XT043AYHEdF9iH0EFiycXg
DUP-140,Aslin Coffee,"1740 14th St NW, Washington, DC, DC, 20009",Coffee,Dupont Circle,4.1,21,,76,38.91392,-77.03255,+12022901516,M1MD7m94ACx3EiDmzzDRFQ
DUP-141,Compass Coffee,"1703 H St NW, Washington, DC, DC, 20006",Coffee,Dupont Circle,4.1,23,,76,38.900429617969806,-77.0397706,+12028383193,E4tzHSofxHmztxaU6qnKNg
DUP-142,E-Tea,"1712 I St NW, Washington, DC, DC, 20006",Coffee,Dupont Circle,3.7,23,$$,76,38.90114116760315,-77.04025639999999,+12025310631,PnaMcfUuxrqrKm96egFPGg
DUP-143,Dolphin Cafe,"1510 H St NW, Washington, DC, DC, 20005",Cafe,Dupont Circle,4.6,34,,76,38.89999,-77.03431,+13016752838,0pK3LaLkoGvyzqGuWyUNtg
DUP-144,Gallery Cafe,"1401 H St NW, Washington, DC, DC, 20005",Cafe,Dupont Circle,4.1,33,$$,76,38.90060035054428,-77.0324436916465,+12024084900,hhjcy5eg4abH35X-L3Uz_g
LOG-045,Oyster Oyster,"1440 8th St NW, Washington, DC, DC, 20001",Wine Bar,Logan Circle,4.6,117,$$$$,76,38.90924048849111,-77.02313017273377,,_Dif28NSqAbDmwPrt_enCg
LOG-046,600 T,"600 T St NW, Washington, DC, DC, 20001",Bar,Logan Circle,4.6,155,$$,76,38.91542,-77.02039,+12028858888,i3gFrb9eWzKex1G4BlJ6WQ
LOG-047,Ciel Downtown,"601 K St NW, Washington, DC, DC, 20001",Bar,Logan Circle,3.5,146,,76,38.90296592542123,-77.02041583196078,+12028314100,Q28E4iXC6sXI-4D4MYapeQ
14TH-018,American Ice Company,"917 V St NW, Washington, DC, DC, 20001",Bar,14th Street Corridor,3.4,387,$$,76,38.91835,-77.02528,+12027583562,Mgksy6zdsGWBmQnk5RB0mw
14TH-019,Bukom Cafe,"2442 18th St NW, Washington, DC, DC, 20009",Bar,14th Street Corridor,3.8,386,$$,76,38.9218043,-77.04256407116394,+12022654600,7bUMsF9OHBwQ4ai-eD1G5A
14TH-020,Cuban Espresso,"2750 14th St NW, Washington, DC, DC, 20009",Coffee,14th Street Corridor,4.4,20,,76,38.925263,-77.032657,+12028482528,cDfILozwkzgVTu30RBmziw
ADAM-010,LiLLiES Restaurant & Bar,"2915 Connecticut Ave NW, Washington, DC, DC, 20008",Bar,Adams Morgan,3.3,353,$$,76,38.9284266,-77.0541245,+12024504824,AA5SZE9Yx6MbDNHxKUss_w
ADAM-011,Krispy Kreme,"3100 14th St NW, Washington, DC, DC, 20010",Coffee,Adams Morgan,2.9,19,,76,38.92955550000052,-77.03323924110543,+12029756162,KXc9SMEb0PXrA7ViyU-zEQ
COLH-017,Trini Vybez Restaurant And Bar,"1400 Meridian Pl NW, Washington, DC, DC, 20010",Wine Bar,Columbia Heights,4.3,19,,76,38.933389,-77.032952,+12024501721,r7_XTaqi9muo4nEEhUpLsw
COLH-018,Tequila & Mezcal,"3475 14th St NW, Washington, DC, DC, 20010",Bar,Columbia Heights,4.3,144,,76,38.93442,-77.03244,+12024502193,L19OkRoEazZVeGqAC5napA
COLH-019,Top Spanish Cafe & Catering,"3541 Georgia Ave NW, Washington, DC, DC, 20010",Wine Bar,Columbia Heights,4.5,116,$$,76,38.9339658,-77.0237034,+12027231596,ZcU6UNc5jaFxyZumZzNN1Q
COLH-020,Youebe Cafe,"3500 14th St NW, Washington, DC, DC, 20010",Coffee,Columbia Heights,4.9,21,,76,38.93487647512639,-77.033013,+12025078148,zVETA8_sJrcBPu0Q1wmUtQ
HST-043,Tiki Garden Thai Street Food,"1252 H St NE, Washington, DC, DC, 20002",Bar,H Street NE,4.8,146,$$,76,38.90041,-76.9885,+12022902145,1LStxbGM8KAJxm1ezHPuHg
HST-044,Little Miss Whiskey's Golden Dollar,"1104 H St NE, Washington, DC, DC, 20002",Bar,H Street NE,3.9,350,$$,76,38.90043,-76.99121,,0qKA0RCS0QtxslUmM6JrNA
HST-045,Mecha Noodle Bar,"387 Morse St NE, Washington, DC, DC, 20002",Bar,H Street NE,4.4,146,$$$,76,38.90795,-77.00064,+12022667577,JzotGPMM_nKNMUJrr_CXlg
CAPH-036,Hawk N Dove Capitol Hill DC,"329 Pennsylvania Ave SE, Washington, DC, DC, 20003",Bar,Capitol Hill / Barracks Row,3.1,408,$$,76,38.8863627,-77.0012272,+12025470030,QvFYCWzbm6I82ENZKDmLXA
CAPH-037,Compliments Only - Washington,"526 8th St SE, Washington, DC, DC, 20003",Coffee,Capitol Hill / Barracks Row,4.7,19,,76,38.88175654339069,-76.99464634535711,+12026218645,xtB9ECLglKc8pN5Sv9C7xw
CAPH-038,Earlybird DC,"909 New Jersey Ave SE, Washington, DC, DC, 20003",Coffee,Capitol Hill / Barracks Row,3.7,19,,76,38.878837,-77.005313,+12028179302,t19zWvFWhmie3mmVdKiCLw
CAPH-039,Nothing Fancy,"715 8th St SE, Washington, DC, DC, 20003",Coffee,Capitol Hill / Barracks Row,4.4,19,,76,38.88072034644561,-76.9951997,,WVWCWl-wpAg062HE297pog
CAPH-040,For Five Coffee Roasters,"80 M St SE, Washington, DC, DC, 20003",Coffee,Capitol Hill / Barracks Row,3.0,21,,76,38.87662977952411,-77.00637516968166,+12029680103,Z-vedaZfv_4cdwsVblgpnQ
PENN-056,The Bazaar by José Andrés,"1100 Pennsylvania Ave NW, Washington, DC, DC, 20004",Bar,Penn Quarter / Chinatown,4.0,380,,76,38.894108,-77.027582,+12028685088,6AQQ3pI_voVz0S1ykiADOA
PENN-057,SPIN Washington DC,"1332 F St NW, Washington, DC, DC, 20045",Bar,Penn Quarter / Chinatown,4.0,166,$$,76,38.897517,-77.03065889999999,+12025171170,DDEzc6obGeu3vu5elsJpfQ
PENN-058,Slipstream,"1210 I St NW, Washington, DC, DC, 20005",Coffee,Penn Quarter / Chinatown,4.3,20,,76,38.90128228910673,-77.02877982420969,,hoRmiid97eZ3dj3zcNWqFw
PENN-059,Kung Fu Tea / TKK Fried Chicken,"625 H St NW, Washington, DC, DC, 20001",Coffee,Penn Quarter / Chinatown,2.6,23,,76,38.900049,-77.021064,+12024501802,CAfa7lXajp2jh1sNoAXAtg
PENN-060,Castle Cafe,"1000 Jefferson Dr SW, Washington, DC, DC, 20050",Cafe,Penn Quarter / Chinatown,2.1,35,$$,76,38.8887203486426,-77.0260239946289,+18668687774,EjrHETtXxmiWn2wjGIa8YA
GTWN-047,The Alex,"1075 Thomas Jefferson St NW, Washington, DC, DC, 20007",Bar,Georgetown,3.7,138,$$,76,38.904775,-77.059903,+12023370900,veabIL9QleGvk7Q_MEZqgQ
GTWN-048,L’Annexe,"2917 M St NW, Washington, DC, DC, 20007",Bar,Georgetown,4.1,141,,76,38.90537,-77.05866,+12025255852,NcsGHD82cEL2F-Xk0ujRpw
GTWN-049,Quinn's On The Corner,"1776 Wilson Blvd, Arlington, VA, 22209",Bar,Georgetown,3.9,355,$$,76,38.893631,-77.07817,+17036403566,WCoIW94VWz73_d9Lx9V4RQ
GTWN-050,Caspian Crust,"1826 Wisconsin Ave NW, Washington, DC, DC, 20007",Coffee,Georgetown,4.3,22,,76,38.915269,-77.067748,+12029165115,CbxJHBa5CT7XAVrciKQ2SA
GTWN-051,Coffee Republic - Georgetown,"3500 O St NW, Washington, DC, DC, 20007",Coffee,Georgetown,3.0,21,,76,38.90764504383746,-77.06917932135212,,cWr-NlFAPYnIyaFgJ5b-og
GTWN-052,Uncommon Grounds,"3700 O St NW, Washington, DC, DC, 20057",Coffee,Georgetown,3.7,22,$,76,38.908933522888894,-77.07365963558489,+12026876079,ystoEa4fZ7C8SdAbobQKdw
NOMA-008,Union Kitchen Grocery,"1625 Eckington Pl NE, Washington, DC, DC, 20002",Coffee,NoMa / Union Market,4.3,23,$$,76,38.91209,-77.00369,+12027927850,deApjK4xBBxw3fPISsnClw
DUP-145,ChurchKey,"1337 14th St NW, Washington, DC, DC, 20005",Restaurant,Dupont Circle,3.9,1529,$$,75,38.908492821790304,-77.03169314110445,+12025672576,si_pqK5Ogi5MZdO-aN_gXw
DUP-146,The Greenhouse,"1200 16th St NW, Washington, DC, DC, 20036",Wine Bar,Dupont Circle,4.1,108,$$$,75,38.9058902,-77.03682,+12024482300,EGsu9F1mjQttn-8-iD3zpA
DUP-147,The Alchemist DC,"1334 U St NW, Washington, DC, DC, 20009",Bar,Dupont Circle,4.2,112,,75,38.91681,-77.03099,+12023199700,G-zmAXu1c6xY7-CF4LAVUQ
DUP-148,Exiles Bar,"1610 U St NW, Washington, DC, DC, 20009",Bar,Dupont Circle,4.3,126,$$,75,38.91679,-77.0373199,+12022322171,jWZRKRArfHAPC6XOMb2dTQ
DUP-149,Vin Sur Vingt,"1529 14th St NW, Washington, DC, DC, 20005",Wine Bar,Dupont Circle,4.2,89,,75,38.910737,-77.0316311,+12022444201,sTa4TVUiMlMXkfZMCQvLog
DUP-150,Red Light,"1401 R St NW, Washington, DC, DC, 20009",Bar,Dupont Circle,3.8,321,$$,75,38.9127595185657,-77.0321166428528,+12022340400,0z7Erz9wquwcXC4fV8oJ2Q
DUP-151,Charm Thai,"2514 L St NW, Washington, DC, DC, 20037",Bar,Dupont Circle,3.4,333,$$,75,38.9035601974389,-77.0539172078128,+12023332460,f9566QE7YS6oM0BaYrpQuA
DUP-152,Spark Social House,"2009 14th St NW, Washington, DC, DC, 20009",Bar,Dupont Circle,4.8,16,,75,38.91738,-77.03164,,bvr7_jM4aO_IwxaX62zxUQ
DUP-153,Sushi Taro,"1503 17th St NW, Washington, DC, DC, 20036",Restaurant,Dupont Circle,3.9,1650,$$$$,75,38.90994,-77.03829,+12024628999,-O-K5I_9TVQCbgH05x9MiA
DUP-154,Ted's Bulletin 14th,"1818 14th St NW, Washington, DC, DC, 20009",Restaurant,Dupont Circle,4.0,2378,$$,75,38.91469,-77.03211,+12022658337,IHu0OfnZrLSFh0QZf0fgFA
DUP-155,Lauriol Plaza,"1835 18th St NW, Washington, DC, DC, 20009",Restaurant,Dupont Circle,3.4,2416,$$,75,38.91529075296795,-77.0414300693839,+12023870035,8FGizWqfHi9XBL2R6J5uJg
DUP-156,Roasting Plant Coffee,"1901 L St NW, Washington, DC, DC, 20036",Coffee,Dupont Circle,3.8,18,,75,38.90398207817661,-77.04365620000738,,l61VZi6tQU15IYNu-Bc9WQ
DUP-157,JOE & THE JUICE,"1500 K St NW, Washington, DC, DC, 20005",Coffee,Dupont Circle,3.3,238,$$,75,38.902268,-77.034726,,GZspLuy4gRePN8yKbVKv8w
DUP-158,Java Cruiser,"Poolesville, MD, 20837",Coffee,Dupont Circle,4.8,18,$$,75,39.1409530639648,-77.4097442626953,+12409948610,yxS0q2JiHOSnGJfq33JMhg
DUP-159,Lulu's Juice Cafe,"1922 I St NW, Washington, DC, DC, 20006",Cafe,Dupont Circle,4.6,25,,75,38.90116428643419,-77.04450539999999,+12028909792,z3H5tjVaGk2xrBaBk0i2Hw
LOG-048,Your Only Friend,"1114 9th St NW, Washington, DC, DC, 20001",Bar,Logan Circle,4.4,118,,75,38.90481701104921,-77.02421626509336,+12029121999,gGP_GI8vEk648JB508Chow
LOG-049,Michele’s,"1201 K St NW, Washington, DC, DC, 20005",Bar,Logan Circle,3.5,115,,75,38.902908,-77.028453,+12027580895,sq3ditYAb6weqzzntTzdNQ
LOG-050,Lucha Rosa Rooftop Bar,"1011 K St NW, Washington, DC, DC, 20001",Bar,Logan Circle,3.6,128,,75,38.90277916894643,-77.0267379,+17719993900,tyU5XUh3VtjUQf8HfcZv0g
LOG-051,RPM Italian,"650 K St NW, Washington, DC, DC, 20001",Restaurant,Logan Circle,4.0,1880,$$$,75,38.9023026852199,-77.0209709153443,+12022044480,qWIddvxzfpDpvti9LKjgVw
LOG-052,Bread Me Cafe,"1117 10th St NW, Washington, DC, DC, 20001",Cafe,Logan Circle,4.2,28,$$,75,38.90468,-77.0258,+12025064098,mUkACG4zUdX6-lLshZZ5uA
14TH-021,Busboys and Poets,"2021 14th St NW, Washington, DC, DC, 20009",Restaurant,14th Street Corridor,4.0,2908,$$,75,38.917898,-77.03144,+12023877638,po1he5ZMcOJ1TOqoVQfaBA
UST-001,Jaliyaa Coffee,"2401 Fourth St NW, Washington, DC, DC, 20059",Coffee,U Street,4.8,17,,75,38.9219493,-77.01793280000001,+12023227013,-v4FjyMVlMTrWrD45a8-og
SHAW-012,Busboys and Poets,"450 K St NW, Washington, DC, DC, 20001",Restaurant,Shaw,3.9,3245,$$,75,38.9023,-77.018065,+12027892227,axnuD2onVoJY7C8y-7ywYw
COLH-021,Fraîche,"3345 14th St NW, Washington, DC, DC, 20010",Bar,Columbia Heights,4.2,133,$$$,75,38.93100371099236,-77.03248378650854,+12025064586,5QaLfZY4X1KkEn0n8c--UQ
COLH-022,Amen Cafe,"3661 Georgia Ave NW, Washington, DC, DC, 20010",Coffee,Columbia Heights,4.6,17,,75,38.93615,-77.02401,+12028467453,ONqpmsg1O7JCgF1WjcYAVw
HST-046,Buffalo & Bergen - Capitol Hill,"240 Massachusetts Ave NE, Washington, DC, DC, 20002",Bar,H Street NE,4.3,136,$$,75,38.8947351498395,-77.0022637128105,+12025253350,k0ZDmLCQ3JgpDS94KSVXVA
HST-047,Fossette Focacceria,"1309 5th St NE, Washington, DC, DC, 20002",Coffee,H Street NE,4.4,16,,75,38.9085573874574,-76.99766045858064,,oZTH5dOdUHFcgUPYEjNwqg
HST-048,Tango Pastry,"408 H St NE, Washington, DC, DC, 20002",Coffee,H Street NE,4.3,15,$$,75,38.90036404558457,-77.00006128803507,+15714781972,CLypDUDCilrEZcRTOTGoZA
CAPH-041,Smoke & Mirrors,"867 New Jersey Ave SE, Washington Dc, DC, 20003",Bar,Capitol Hill / Barracks Row,3.3,303,$$,75,38.88026990594507,-77.00566073619363,+12029842474,8aEiuShexXevIhl4nXTEmg
CAPH-042,Hill East Burger,"1432 Pennsylvania Ave SE, Washington, DC, DC, 20003",Bar,Capitol Hill / Barracks Row,4.2,115,$$,75,38.880105,-76.984136,+12027443339,AJeMHtPk_wRC_Uyog-WNSQ
CAPH-043,Ted's Bulletin Capitol Hill,"505 8th St SE, Washington, DC, DC, 20003",Restaurant,Capitol Hill / Barracks Row,3.9,2597,$$,75,38.88251,-76.99535,+12025448337,mC5THK334Eo0Awv4JE-lnA
CAPH-044,Rose's Luxury,"717 8th St SE, Washington, DC, DC, 20003",Restaurant,Capitol Hill / Barracks Row,4.5,2428,$$$$,75,38.88063,-76.99534,+12027423570,a-5Jd4irVqkaxRs-AQ-HGw
CAPH-045,Budweiser Brewhouse,"1500 S Capitol St SE, Washington, DC, DC, 20003",Brewery,Capitol Hill / Barracks Row,2.5,20,,75,38.87299,-77.00754,,_UwV1mZq7eWDQJRP7ro9UA
NAVY-011,Sushi By Bou- DC @ CitizenM Hotel L'enfant Plaza,"550 School St SW, Washington, DC, DC, 20024",Bar,Navy Yard / The Wharf,4.0,114,,75,38.88370815282365,-77.01943362426536,+18886705996,Tc_rFzR12z1fExxN5-E8ig
PENN-061,Oyamel,"401 7th St NW, Washington, DC, DC, 20004",Restaurant,Penn Quarter / Chinatown,3.8,3508,$$,75,38.8949709,-77.02172139999999,+12026281005,A807alX7WhJ5gXtUPK2grg
PENN-062,Carmine's - Washington DC,"425 7th St NW, Washington, DC, DC, 20004",Restaurant,Penn Quarter / Chinatown,3.6,1850,$$$,75,38.89559,-77.02164,+12027377770,W1ta4KHHO9m_5KCGx2Athw
PENN-063,The Hamilton,"600 14th St NW, Washington, DC, DC, 20005",Nightclub,Penn Quarter / Chinatown,3.9,3933,$$,75,38.8974544016632,-77.0320804809509,+12027871000,6Qhmt1jo7BMcFcp41fPFVg
PENN-064,District Taco,"1309 F St NW, Washington, DC, DC, 20004",Restaurant,Penn Quarter / Chinatown,3.8,1871,$$,75,38.8976072,-77.03015735467346,+12023477359,iqV-9rIC-azTw9OQQc8Vhw
PENN-065,Central Michel Richard,"1001 Pennsylvania Ave NW, Washington, DC, DC, 20004",Restaurant,Penn Quarter / Chinatown,3.9,1440,$$$,75,38.895003,-77.026738,+12026260015,-QvEB4PhS7n3hCBgVpnZrA
PENN-066,Warka Coffee,"500 New Jersey Ave NW, Washington, DC, DC, 20001",Coffee,Penn Quarter / Chinatown,4.9,15,,75,38.8964652,-77.0119596,+14437582038,PXlhq0HAuIRs3BIbJEx7Jw
PENN-067,Tous Les Jours Bakery and Cafe,"625 H St NW, Washington, DC, DC, 20001",Coffee,Penn Quarter / Chinatown,4.4,16,,75,38.900049,-77.021074,+12026217811,CGUuZv4EyTUrrEFarhfETQ
GTWN-053,Salt,"1201 Wilson Blvd, Arlington, VA, 22209",Bar,Georgetown,4.5,289,$$$,75,38.89571577172282,-77.07099243299325,+17038750491,NpAZtXqA9_bYWe9r3jyNow
GTWN-054,Founding Farmers Fishers & Bakers,"3000 K St Nw The Washington Harbour, Washington, DC, DC, 20007",Restaurant,Georgetown,3.9,5123,$$,75,38.90178386860307,-77.05973267918453,+12022988783,sxNUpaApjh_54-l9RcJRDA
GTWN-055,Sequoia,"3000 K St NW, Washington, DC, DC, 20007",Restaurant,Georgetown,3.3,1576,$$$,75,38.9013044,-77.059711,+12029444200,YtPKdaicJQ-i2yP9bV-5EA
GTWN-056,Monstera,"3299 K St NW, Washington, DC, DC, 20007",Coffee,Georgetown,4.1,17,,75,38.903372,-77.064819,,do-nEJGelk8wEY5QeUKjtg
GTWN-057,Cafe Sushi Garden,"1560 Wilson Blvd, Arlington, VA, 22209",Cafe,Georgetown,4.9,24,,75,38.89387006834369,-77.07645866610818,+15712577857,uiZoxSwUIhNsOWBkDjD9Hw
GLOV-006,Breadsoda,"2233 Wisconsin Ave NW, Washington, DC, DC, 20007",Bar,Glover Park / Cathedral,4.1,272,$$,75,38.919748018282,-77.0708805500753,+12023337445,hBrgB8hbc-ezhaJlOGMWbw
BROOK-006,Primrose,"3000 12th St NE, Washington, DC, DC, 20017",Bar,Brookland,4.0,288,$$,75,38.92775,-76.99088,+12022484558,xiRBA4j4hb6d6LVs0Z_ZIA
NOMA-009,Chadol Korean BBQ,"630 Rhode Island Ave NE, Washington, DC, DC, 20002",Bar,NoMa / Union Market,4.5,124,,75,38.90677129750481,-77.00608598103258,+12025165940,kCBgGF-yV5OdOfUQHMkmCw
DUP-160,Duke's Grocery,"1513 17th St NW, Washington, DC, DC, 20036",Bar,Dupont Circle,4.1,1365,$$,74,38.9101969,-77.03828734112203,+12025252079,JBW8opo46lKNN4Eu5VDvJg
DUP-161,Lyle's,"1731 New Hampshire Ave NW, Washington, DC, DC, 20009",Bar,Dupont Circle,4.1,240,$$,74,38.9133664,-77.0395143,+12029646790,3BeL8DSRYt4FtUx9PoA5Bw
DUP-162,The Rooftop,"2015 Massachusetts Ave, Washington, DC, DC, 20036",Bar,Dupont Circle,2.9,104,$$$,74,38.91081,-77.04565,+12022651600,WR54eF67L1d3imHNFkDI6w
DUP-163,McClellan's Retreat,"2031 Florida Ave NW, Washington, DC, DC, 20009",Bar,Dupont Circle,4.2,231,$$,74,38.9143463,-77.04659567291002,+12022656270,Fl0IddVMTRL_x5PBZSohEQ
DUP-164,Ceibo,"2106 18th St NW, Washington, DC, DC, 20009",Wine Bar,Dupont Circle,4.9,78,,74,38.918109,-77.041904,,PI5WM6ZvxkDf0QWmE3f0xw
DUP-165,Amelie,"1315 14th St NW, Washington, DC, DC, 20005",Bar,Dupont Circle,4.3,76,,74,38.9078016,-77.0315792,+12026217169,AZAGv6bvyyx2AFNNYWP_mQ
DUP-166,Edgar Bar & Kitchen,"1127 Connecticut Ave NW, Washington, DC, DC, 20036",Bar,Dupont Circle,2.9,247,$$$,74,38.90453600576471,-77.03995283133955,+12023472233,LE2qi2w-1TYN7NipxizF8A
DUP-167,El Secreto De Rosita,"1624 U St NW, Washington, DC, DC, 20009",Bar,Dupont Circle,4.2,253,$$$,74,38.916766,-77.037885,+12022348400,xgHbfWwnh2uM3s9HMVRkSg
DUP-168,Saint Yves,"1220 Connecticut Ave NW, Washington, DC, DC, 20036",Bar,Dupont Circle,2.6,98,$$$,74,38.9065827322732,-77.0419565588236,+12024662582,CCZA55xjWrpicObHTwoYHA
DUP-169,Lucy Bar,"1350 Florida Ave NW, Washington, DC, DC, 20009",Bar,Dupont Circle,4.1,74,,74,38.92002327865334,-77.03147438069553,+12022990514,agmibo4YEN3dkTmwhGLsEA
DUP-170,Boqueria Dupont,"1837 M St NW, Washington, DC, DC, 20036",Restaurant,Dupont Circle,4.0,1644,$$$,74,38.9059492340712,-77.0431413711634,+12025589545,u4J0llPPQDXNuRq2mNX6LQ
DUP-171,Le Diplomate,"1601 14th St NW, Washington, DC, DC, 20009",Restaurant,Dupont Circle,4.3,5710,$$$,74,38.91135,-77.03157,+12023323333,j9qYRR8HCXm_GEnetijOGA
DUP-172,Agora DC,"1527 17th St NW, Washington, DC, DC, 20036",Restaurant,Dupont Circle,4.0,1811,$$$,74,38.91067,-77.03813,+12023326767,P84YlbWFW1oarBRmQzIvFQ
DUP-173,Bistrot Du Coin,"1738 Connecticut Ave NW, Washington, DC, DC, 20009",Restaurant,Dupont Circle,3.8,1976,$$,74,38.913852,-77.046112,+12022346969,9uuDSvj9b7ntCq0ETuizzg
DUP-174,Tabard Inn Restaurant,"1739 N St NW, Washington, DC, DC, 20036",Restaurant,Dupont Circle,4.0,1898,$$,74,38.90746,-77.03999,+12023318528,uKdR9MY-hnkSWak3KuvsZQ
DUP-175,Keren Restaurant,"1780 Florida Ave NW, Washington, DC, DC, 20009",Restaurant,Dupont Circle,4.6,1295,$$,74,38.91684046738752,-77.0412731,+12022655764,5xuqyS6zIg5uXuK-fya5Kg
DUP-176,Firefly,"1310 New Hampshire Ave NW, Washington, DC, DC, 20036",Restaurant,Dupont Circle,3.7,1235,$$,74,38.9076499,-77.04582,+12028611310,fjQPSFz-F8GEvSNN1W9wpQ
DUP-177,Rasika West End,"1190 New Hampshire Ave NW, Washington, DC, DC, 20037",Restaurant,Dupont Circle,4.0,1805,$$$,74,38.90513484047,-77.0478002789335,+12024662500,02i1RoOkg1Vh6x1-FF-eyg
DUP-178,Maydan,"1346 Florida Ave NW, Washington, DC, DC, 20009",Restaurant,Dupont Circle,4.4,1326,$$$$,74,38.9198436416598,-77.0310185087658,,g5K7gQLArdpXYqbw1yAFHw
DUP-179,"Joe's Seafood, Prime Steak & Stone Crab","750 15th St NW, Washington, DC, DC, 20005",Restaurant,Dupont Circle,4.3,2111,$$$,74,38.90003,-77.03392,+12024890140,MP6K_2ye4QRoG26tjGJGDA
DUP-180,Others Coffee,"1722 Florida Ave NW, Washington, DC, DC, 20009",Coffee,Dupont Circle,4.7,13,,74,38.917956942160096,-77.0401035456419,,Jks-TNhhOXwx5I-y4v-eEQ
DUP-181,Pret A Manger,"1825 Eye St, Washington DC, DC, 20006",Coffee,Dupont Circle,3.9,183,$,74,38.901363,-77.041538,+12028286971,2E5jxTvWY_tk0AKq5gGZOQ
DUP-182,BPM Coffee & Wine,"1430 Rhode Island Ave NW, Washington, DC, DC, 20005",Wine Bar,Dupont Circle,4.1,12,,74,38.908074,-77.032967,+12025212721,7k--kn68SJWPIS2zpFRQcg
DUP-183,Compass Coffee,"1301 K St NW, Washington, DC, DC, 20005",Coffee,Dupont Circle,3.3,12,,74,38.90292,-77.03055,+12028383193,Vlt48XJtrvyiAfvgHdS6CA
DUP-184,Tia Pepa,"801 18th St NW, Washington, DC, DC, 20006",Cafe,Dupont Circle,4.5,22,,74,38.90053,-77.04144,+12029679128,-PrTiIs1r3lgxpst8ccJkw
LOG-053,Death & Co DC,"124 Blagden Aly NW, Washington, DC, DC, 20001",Bar,Logan Circle,4.1,105,$$$,74,38.90642,-77.02455,,5BH-QCHY-5cuBAd0liAIqw
LOG-054,The Dignitary,"901 Massachusetts Ave NW, Washington, DC, DC, 20001",Bar,Logan Circle,3.8,101,$$,74,38.90376,-77.02478,+12028249681,dUnrP8johv_pkJK0HKY3Lw
LOG-055,Appioo African Bar & Grill,"1924 9th St NW, Washington, DC, DC, 20001",Bar,Logan Circle,3.8,218,$$,74,38.916286,-77.024289,+12025887366,ExyOrbWFPQ4UsCwrwZ-WNg
LOG-056,Allegory,"1201 K St NW, Washington, DC, DC, 20005",Bar,Logan Circle,4.2,233,,74,38.90292,-77.02855,+12029008418,oCmOcpvye9f6SVyapm8sQA
LOG-057,Wild Days,"1201 K St NW, Washington, DC, DC, 20005",Bar,Logan Circle,3.5,110,,74,38.90292,-77.02855,,I9ce-jbY2N6ASlMGV_hFTQ
LOG-058,Unconventional Diner,"1207 9th St NW, Washington, DC, DC, 20001",Restaurant,Logan Circle,4.4,3332,$$,74,38.906139,-77.0238,+12028470122,kVCCVqIikApTuD_SGHBwHg
LOG-059,Ben's Chili Bowl,"1213 U St NW, Washington, DC, DC, 20009",Restaurant,Logan Circle,3.7,4356,$$,74,38.91732,-77.02876,+12026670909,5HmG3AWHUiB3jjbPFaiVEQ
LOG-060,Compass Coffee,"1023 7th St NW, Washington, DC, DC, 20002",Coffee,Logan Circle,4.0,13,,74,38.903813476781494,-77.0216545,,urLEpGV0ZXtvNIVRASNKGw
LOG-061,Brew On U,"1931 13th St NW, Washington, DC, DC, 20009",Coffee,Logan Circle,3.8,12,,74,38.91662413671141,-77.02932879726738,+12028921122,pnzTul5f-dhJqeH5nrUxCQ
14TH-022,Wet Dog Tavern,"2100 Vermont Ave NW, Washington, DC, DC, 20001",Bar,14th Street Corridor,3.2,93,$$,74,38.9183,-77.02488,+12022343334,ScyO0oRDbVdxoveCkDt3ig
14TH-023,Sakuramen,"2441 18th St NW, Washington, DC, DC, 20009",Restaurant,14th Street Corridor,4.1,1756,$$,74,38.9216012545356,-77.0420884061516,+12026565285,uXCtjTFzLX2tt6WaCGcCAg
14TH-024,Dolci Gelati Truck,"Washington, DC, DC, 20001",Coffee,14th Street Corridor,4.1,14,$,74,38.9104423522949,-77.0177383422852,+12026303106,AJTBcWw1r46sVWNrUossDg
SHAW-013,dLeña,"476 K St NW, Washington, DC, DC, 20001",Restaurant,Shaw,4.4,1237,$$$,74,38.902262,-77.01869,+12025605999,W8n8mW2fnHBqRN8QnqAk-w
SHAW-014,Founding Farmers & Distillers,"600 Massachusetts Ave NW, Washington, DC, DC, 20001",Restaurant,Shaw,3.7,2768,$$,74,38.90141,-77.02053,+12024643001,vWp0l1cdmNNyUFi7F5ndTQ
ADAM-012,Grand Central,"2447 18th St NW, Washington, DC, DC, 20009",Bar,Adams Morgan,3.1,226,$$,74,38.92098621688569,-77.0426598048989,+12029861742,XGKMeelsF3yPbY-jIZxZRA
ADAM-013,Hot N Juicy Crawfish,"2651 Connecticut Ave NW, Washington, DC, DC, 20008",Restaurant,Adams Morgan,4.0,2219,$$$,74,38.92503,-77.052,+12022999448,LhVZjnt_W_RGymDCGJZVBw
ADAM-014,Open City,"2331 Calvert St NW, Washington, DC, DC, 20008",Restaurant,Adams Morgan,3.5,1901,$$,74,38.92372,-77.05237,+12023322331,wZi_d3sSSPzAojTEYmClug
COLH-023,Hook Hall,"3400 Georgia Ave NW, Washington, DC, DC, 20010",Bar,Columbia Heights,3.5,247,$$,74,38.93229,-77.02413,+12026294339,uWKIjayO9YE_lbS_c7g7sQ
COLH-024,Thip Khao,"3462 14th St NW, Washington, DC, DC, 20010",Restaurant,Columbia Heights,4.4,1502,$$,74,38.9329951308367,-77.03298782558623,+12023875426,Sd9A-WKorTYI02gRvWMNjA
HST-049,The Haymaker Bar,"1015 H St NE, Washington, DC, DC, 20002",Bar,H Street NE,4.3,92,$$,74,38.89993,-76.99205,+12023681626,cr-IvGko_ZR-n6qC0CfpFA
HST-050,Pascual,"732 Maryland Ave NE, Washington, DC, DC, 20002",Bar,H Street NE,4.0,100,,74,38.89566385318644,-76.9951609,,0ovG-kERdjK1R71DvGBmww
HST-051,Lucky Buns,"1309 5th St NE, Washington, DC, DC, 20002",Bar,H Street NE,3.9,106,$$,74,38.9085460217899,-76.99734870000002,+13013354379,SqoRO-R_7FoJQM6Ki7FZkg
HST-052,Granville Moore's,"1238 H St NE, Washington, DC, DC, 20002",Restaurant,H Street NE,3.9,1021,$$,74,38.90041,-76.9889199,+12023992546,sMRVWEI7U9ThP7jZBK_aBQ
HST-053,St. Anselm,"1250 5th St NE, Washington, DC, DC, 20002",Restaurant,H Street NE,4.4,1154,$$$,74,38.907794,-76.999082,+12028642199,N0yurfXS0LcvY7COhwjRog
CAPH-046,Lobby Bar,"224 7th St SE, Washington, DC, DC, 20003",Bar,Capitol Hill / Barracks Row,4.1,94,$$$,74,38.88657107660623,-76.99599432399827,+12025164816,IF22-H2FCFgM0RgnaY79aA
CAPH-047,La Plaza,"629 Pennsylvania Ave SE, Washington, DC, DC, 20003",Bar,Capitol Hill / Barracks Row,3.5,239,$$,74,38.88490252088345,-76.99742311811183,+12025469512,1U6StEsPm9WZLk4Y405Z3A
CAPH-048,Royal Sands Social Club,"26 N St SE, Washington, DC, DC, 20003",Bar,Capitol Hill / Barracks Row,4.4,245,$$,74,38.87482,-77.00799,+12023559000,3WpXJdpC9V6zOAw2DLYoVA
CAPH-049,"AMBAR Restaurant, Capitol Hill","523 8th St SE, Washington, DC, DC, 20003",Restaurant,Capitol Hill / Barracks Row,4.5,2386,$$$,74,38.88208,-76.99534,+12028133039,oXdLd4LNWEcgSqPLcsVO9A
CAPH-050,Matchbox,"521 8th St SE, Washington, DC, DC, 20003",Restaurant,Capitol Hill / Barracks Row,3.8,1241,$$,74,38.882097,-76.99533,+12025480369,sv8KwaWuCIsceJXJqb_t_w
CAPH-051,Belga Cafe,"514 8th St SE, Washington, DC, DC, 20003",Restaurant,Capitol Hill / Barracks Row,3.6,1246,$$$,74,38.8822093120663,-76.994770143586,+12025440100,mFoSMJE4aGCK6cOxrCY4HQ
CAPH-052,Good Stuff Eatery,"303 Pennsylvania Ave SE, Washington, DC, DC, 20003",Restaurant,Capitol Hill / Barracks Row,3.5,2083,$$,74,38.886598,-77.001792,+12025438222,M_duatTMdDsNtQJQJcLOtw
CAPH-053,"We, The Pizza","305 Pennsylvania Ave SE, Washington, DC, DC, 20003",Restaurant,Capitol Hill / Barracks Row,3.4,1274,$,74,38.88658867801352,-77.00172073983452,+12025444008,pYKGazN3M0Mh3a4-CUwELg
